[{"id":"1733","title":"\ubb34\uc8fc \ub370\ud504\ucf58","address":"\uc804\ubd81 \ubb34\uc8fc\uad70 \ubb34\uc8fc\uc74d \ubb34\uc124\ub85c 104","latlng":"36.0105883,127.6878887"},{"id":"1732","title":"\uc644\uc8fc\uad70 \uad6c\uc774\uba74 \uc804\uc6d0\uc8fc\ud0dd(\uc774\uce35\uc9d1)","address":"\uc804\ubd81 \uc644\uc8fc\uad70 \uad6c\uc774\uba74 \uc6d0\uae30\ub9ac 705-46","latlng":"35.7310052,127.1123051"},{"id":"1731","title":"\uad6d\ub9bd\uccad\uc18c\ub144\ub18d\uc0dd\uba85\uc13c\ud130","address":"\uc804\ubd81 \uae40\uc81c\uc2dc \ubd80\ub7c9\uba74 \ubcbd\uace8\uc81c\ub85c 421 \uad6d\ub9bd\uccad\uc18c\ub144\ub18d\uc0dd\uba85\uc13c\ud130","latlng":"35.7535221,126.8510308"},{"id":"1730","title":"\ubd80\uc548 \uc0c8\ub9cc\uae08 \uac04\ucc99\uc9c0","address":"\uc804\ubd81 \ubd80\uc548\uad70 \ubcc0\uc0b0\uba74 \uc0c8\ub9cc\uae08\ub85c 6\uc9c0\ubc88\uc804\ubd81 \ubd80\uc548\uad70 \ubcc0\uc0b0\uba74 \ub300\ud56d\ub9ac 141","latlng":"35.6967483,126.5591819"},{"id":"1729","title":"\uc804\uc8fc\uc2dc \uc591\ubb18\uc7a5(\uc601\uc0c1)","address":"\uc804\ubd81 \uc804\uc8fc\uc2dc \ub355\uc9c4\uad6c \uc6b0\uc544\ub3d91\uac00 851","latlng":"35.8244916,127.1808024"},{"id":"1728","title":"\uc644\uc8fc\uad70 \uacf5\uae30\ub9c8\uc744 \ud3b8\ubc31\ub098\ubb34 \uc232(\uc601\uc0c1)","address":"\uc804\ubd81 \uc644\uc8fc\uad70 \uc0c1\uad00\uba74 \uc8fd\ub9bc\ub9ac \uc0b0214-1","latlng":"35.7348814,127.1888771"},{"id":"1727","title":"\uc644\uc8fc\uad70 \uc544\uc6d0\uace0\ud0dd(\uc601\uc0c1)","address":"\uc804\ubd81 \uc644\uc8fc\uad70 \uc18c\uc591\uba74 \uc1a1\uad11\uc218\ub9cc\ub85c 516-7","latlng":"35.9034920,127.2446683"},{"id":"1726","title":"\uc804\uc8fc\uc2dc \uc644\uc0b0\ub3d9 \uace8\ubaa9(\uc601\uc0c1)","address":"\uc804\ubd81 \uc804\uc8fc\uc2dc \uc644\uc0b0\uad6c \uc0bc\ucc9c\ub3d91\uac00","latlng":"35.8007352,127.1217825"},{"id":"1725","title":"\uc804\uc8fc \uc624\uc1a1\uc81c(\uc601\uc0c1)","address":"\uc804\ubd81 \uc804\uc8fc\uc2dc \ub355\uc9c4\uad6c \uc1a1\ucc9c\ub3d91\uac00 9-1","latlng":"35.8618759,127.1366995"},{"id":"1724","title":"\uc804\uc8fc \ub3d9\ubb3c\uc6d0(\uc601\uc0c1)","address":"\uc804\ubd81 \uc804\uc8fc\uc2dc \ub355\uc9c4\uad6c \uc18c\ub9ac\ub85c 68 \uc804\uc8fc\ub3d9\ubb3c\uc6d0","latlng":"35.8551190,127.1443080"},{"id":"1723","title":"\uc804\uc8fc\uc2dc \ub355\uc9c4\uacf5\uc6d0(\uc601\uc0c1)","address":"\uc804\ubd81 \uc804\uc8fc\uc2dc \ub355\uc9c4\uad6c \uad8c\uc0bc\ub4dd\ub85c 390 \uc804\uc8fc\ub355\uc9c4\uacf5\uc6d0","latlng":"35.8474952,127.1210319"},{"id":"1722","title":"\uc804\uc8fc\uc2dc \ub0a8\ubd80\uc2dc\uc7a5 \uccad\ub144\ubab0(\uc601\uc0c1)","address":"\uc804\ubd81 \uc804\uc8fc\uc2dc \uc644\uc0b0\uad6c \ud48d\ub0a8\ubb382\uae38 53","latlng":"35.8121611,127.1473519"},{"id":"1721","title":"\uc804\uc8fc \uacbd\uae30\uc804(\uc601\uc0c1)","address":"\uc804\ubd81 \uc804\uc8fc\uc2dc \uc644\uc0b0\uad6c \ud48d\ub0a8\ub3d93\uac00","latlng":"35.8159000,127.1528000"},{"id":"1719","title":"\uc804\uc8fc\uc2dc \uc790\uc5f0\uc0dd\ud0dc\ud559\uc2b5\uc6d0","address":"\uc804\ubd81 \uc804\uc8fc\uc2dc \ub355\uc9c4\uad6c \uc6b0\uc544\ub3d91\uac00 851","latlng":"35.8244916,127.1808024"},{"id":"1718","title":"\uc804\uc8fc\uc2dc \uc790\uc5f0\uc0dd\ud0dc\ubc15\ubb3c\uad00 \uc778\ub3c4\uad50","address":"\uc804\ubd81 \uc804\uc8fc\uc2dc \uc644\uc0b0\uad6c \ubc14\ub78c\uc42c\ub294\uae38 21","latlng":"35.8116042,127.1626003"},{"id":"1717","title":"\uc804\uc8fc\uc2dc \uc790\uc5f0\uc0dd\ud0dc\ubc15\ubb3c\uad00 \uac08\ub300","address":"\uc804\ubd81 \uc804\uc8fc\uc2dc \uc644\uc0b0\uad6c \ubc14\ub78c\uc42c\ub294\uae38 21","latlng":"35.8116042,127.1626003"},{"id":"1716","title":"\uc804\uc8fc\uc2dc \uc5b4\ub450\uc81c","address":"\uc804\ubd81 \uc804\uc8fc\uc2dc \uc644\uc0b0\uad6c \uc911\uc778\ub3d9","latlng":"35.7566000,127.0891000"},{"id":"1714","title":"\ubd80\uc548\uad70 \uae08\uad11\uc81c","address":"\uc804\ubd81 \ubd80\uc548\uad70 \ud558\uc11c\uba74 \ubc31\ub828\ub9ac","latlng":"35.6986010,126.6003130"},{"id":"1713","title":"\uc804\uc8fc\uc2dc \ud55c\uc625\ub9c8\uc744 \ub2f4\uae38","address":"\uc804\ubd81 \uc804\uc8fc\uc2dc \uc644\uc0b0\uad6c \ucd5c\uba85\ud76c\uae38 12-6","latlng":"35.8166088,127.1534491"},{"id":"1710","title":"\uc804\uc8fc\uc2dc \uc911\ub178\uc1a1\ub3d9 \uc8fc\ud0dd\uace8\ubaa9","address":"\uc804\ubd81 \uc804\uc8fc\uc2dc \uc644\uc0b0\uad6c \ubb38\ud6542\uae38 12","latlng":"35.8239947,127.1560817"},{"id":"1709","title":"\uc804\uc8fc\uc2dc \ub0a8\ucd08\ub4f1\ud559\uad50 \uc778\uc870\uc794\ub514 \uc6b4\ub3d9\uc7a5","address":"\uc804\ubd81 \uc804\uc8fc\uc2dc \uc644\uc0b0\uad6c \uc7a5\uc2b9\ubc30\uae30\ub85c 376 \uc804\uc8fc\ub0a8\ucd08\ub4f1\ud559\uad50","latlng":"35.8034667,127.1507875"},{"id":"1708","title":"\uc804\uc8fc\uc2dc \uc804\uc8fc\uacf5\uc5c5\uace0\ub4f1\ud559\uad50 \ucc9c\uc5f0\uc794\ub514 \uc6b4\ub3d9\uc7a5","address":"\uc804\ubd81 \uc804\uc8fc\uc2dc \ub355\uc9c4\uad6c \uc5ec\uc0b0\ub85c 101","latlng":"35.8628687,127.0752209"},{"id":"1707","title":"\uc804\uc8fc\uc2dc \uc804\uc8fc\uacf5\uc5c5\uace0\ub4f1\ud559\uad50 \uc778\uc870\uc794\ub514 \uc6b4\ub3d9\uc7a5","address":"\uc804\ubd81 \uc804\uc8fc\uc2dc \ub355\uc9c4\uad6c \uc5ec\uc0b0\ub85c 101","latlng":"35.8628687,127.0752209"},{"id":"1706","title":"\uc804\uc8fc\uc2dc \uc804\uc8fc\uacf5\uc5c5\uace0\ub4f1\ud559\uad50 \uc678\uacbd","address":"\uc804\ubd81 \uc804\uc8fc\uc2dc \ub355\uc9c4\uad6c \uc5ec\uc0b0\ub85c 101","latlng":"35.8628687,127.0752209"},{"id":"1705","title":"\uc804\uc8fc\uc2dc \uc804\uc8fc\uacf5\uc5c5\uace0\ub4f1\ud559\uad50 \uc2e4\uc2b5\ub3d9 \uc8fc\ubcc0","address":"\uc804\ubd81 \uc804\uc8fc\uc2dc \ub355\uc9c4\uad6c \uc5ec\uc0b0\ub85c 101","latlng":"35.8628687,127.0752209"},{"id":"1704","title":"\uc804\uc8fc\uc2dc \uc804\uc8fc\uacf5\uc5c5\uace0\ub4f1\ud559\uad50 \uae09\uc2dd\uc2e4","address":"\uc804\ubd81 \uc804\uc8fc\uc2dc \ub355\uc9c4\uad6c \uc5ec\uc0b0\ub85c 101","latlng":"35.8628687,127.0752209"},{"id":"1703","title":"\uc804\uc8fc\uc2dc \uc804\uc77c\uace0\ub4f1\ud559\uad50 \uc778\uc870\uc794\ub514 \uc6b4\ub3d9\uc7a5","address":"\uc804\ubd81 \uc804\uc8fc\uc2dc \uc644\uc0b0\uad6c \uc6b0\uc804\ub85c 249 \uc804\uc77c\uace0\ub4f1\ud559\uad50","latlng":"35.8157083,127.0996625"},{"id":"1702","title":"\uc784\uc2e4\uad70 \uac74\uc870\uacf5\uc7a5","address":"\uc804\ubd81 \uc784\uc2e4\uad70 \uc624\uc218\uba74 \ubd09\ucc9c1\uae38 4 \ub300\ubcf4\uc720\ud1b5","latlng":"35.5765243,127.3129165"},{"id":"1701","title":"\uc775\uc0b0\uc2dc \ub3d9\ud638\ub9c8\ube14 \uc11d\uc0b0","address":"\uc804\ubd81 \uc775\uc0b0\uc2dc \ud669\ub4f1\uba74 \uc11d\uc7ac\ub2e8\uc9c0\uae38 66-15","latlng":"36.0233612,126.9519262"},{"id":"1699","title":"\uc804\uc8fc\uc2dc \uc1a1\ucc9c\ucd08\ub4f1\ud559\uad50 \uc778\uc870\uc794\ub514 \uc6b4\ub3d9\uc7a5","address":"\uc804\ubd81 \uc804\uc8fc\uc2dc \ub355\uc9c4\uad6c \uc1a1\ucc9c1\uae38 10 \uc804\uc8fc\uc1a1\ucc9c\ucd08\ub4f1\ud559\uad50","latlng":"35.8578449,127.1198293"},{"id":"1698","title":"\uc644\uc8fc\uad70 \uc0c1\uad00\ucca0\uae38\uc9c0\ud558\ubcf4\ub3c4","address":"\uc804\ub77c\ubd81\ub3c4 \uc644\uc8fc\uad70 \uc0c1\uad00\uba74 \uc2e0\ub9ac 915","latlng":"35.7717257,127.2072865"},{"id":"1697","title":"\ubd80\uc548\uad70 \ub3d9\ubd81\ucd08\ub4f1\ud559\uad50","address":"\uc804\ubd81 \ubd80\uc548\uad70 \ub3d9\uc9c4\uba74 \uc81c\uc804\uae38 63","latlng":"35.7753937,126.7309184"},{"id":"1696","title":"\uae40\uc81c\uc2dc \uc131\uc2e0\uc57d\ubc29","address":"\uc804\ubd81 \uae40\uc81c\uc2dc \ud669\uc0b0\uba74 \ubd09\uc6d46\uae38 12","latlng":"35.7951913,126.9444947"},{"id":"1695","title":"\ubd80\uc548\uad70 \uae08\uad6c\uc6d0\uc870\uac01\uacf5\uc6d0","address":"\uc804\ubd81 \ubd80\uc548\uad70 \ubcc0\uc0b0\uba74 \ub3c4\uccad\ub9ac 861-20","latlng":"35.6206518,126.4889428"},{"id":"1693","title":"\ubd80\uc548\uad70 \uc0c8\ub9cc\uae08","address":"\uc804\ubd81 \ubd80\uc548\uad70 \ubcc0\uc0b0\uba74 \uc0c8\ub9cc\uae08\ub85c 6","latlng":"35.6967483,126.5591819"},{"id":"1692","title":"\uad70\uc0b0\uc2dc \uace0\uc6b0\ub2f9","address":"\uc804\ubd81 \uad70\uc0b0\uc2dc \uad6c\uc6016\uae38 19","latlng":"35.9852848,126.7080917"},{"id":"1690","title":"\uae40\uc81c\uc2dc \uba54\ud0c0\uc138\ucf70\uc774\uc5b4\ub3c4\ub85c","address":"\uc804\ub77c\ubd81\ub3c4 \uae40\uc81c\uc2dc \uc8fd\uc0b0\uba74 \uc885\uc2e0\ub9ac 540","latlng":"35.7929882,126.8094979"},{"id":"1689","title":"\uae40\uc81c\uc2dc \uc190\ud6a8\uc131 \uac00\uc625","address":"\uc804\ubd81 \uae40\uc81c\uc2dc \uc2e0\ud48d\ub3d9","latlng":"35.7960485,126.8978895"},{"id":"1688","title":"\uc804\uc8fc\uc2dc \ub300\uc2b9\uc0ac","address":"\uc804\ub77c\ubd81\ub3c4 \uc804\uc8fc\uc2dc \uc644\uc0b0\uad6c \ub3d9\uc11c\ud559\ub3d9 829-2","latlng":"35.8044477,127.1566133"},{"id":"1687","title":"\uc804\uc8fc\uc2dc \uc1a1\uc6a9\uc9c4\ud55c\uc758\uc6d0","address":"\uc804\ubd81 \uc804\uc8fc\uc2dc \uc644\uc0b0\uad6c \uc804\ub77c\uac10\uc6012\uae38 28-25 \uc1a1\uc6a9\uc9c4\ud55c\uc758\uc6d0\uc9c0\ubc88\uc804\ubd81 \uc804\uc8fc\uc2dc \uc644\uc0b0\uad6c \uc911\uc559\ub3d91\uac00 47-4","latlng":"35.8162322,127.1424362"},{"id":"1686","title":"\uc804\uc8fc\uc2dc \uc11c\uc6b8\uc18c\ubc14","address":"\uc804\ubd81 \uc804\uc8fc\uc2dc \uc644\uc0b0\uad6c \uc804\ub77c\uac10\uc6013\uae38 17-2","latlng":"35.8167979,127.1429300"},{"id":"1685","title":"\uc804\uc8fc\uc2dc \uc644\uc0b0\uace0\ub4f1\ud559\uad50 \uac15\ub2f9","address":"\uc804\ubd81 \uc804\uc8fc\uc2dc \uc644\uc0b0\uad6c \ub2a5\uc548\uc790\uad6c\uae38 55\uc9c0\ubc88\uc804\ubd81 \uc804\uc8fc\uc2dc \uc644\uc0b0\uad6c \uc0bc\ucc9c\ub3d93\uac00 417","latlng":"35.8021842,127.0835342"},{"id":"1684","title":"\uc804\uc8fc\uc2dc \uc2e0\ud765 \uc911\uace0\ub4f1\ud559\uad50 \uac15\ub2f9","address":"\uc804\ubd81 \uc804\uc8fc\uc2dc \uc644\uc0b0\uad6c \uc11c\uc6d0\ub85c 399","latlng":"35.8171500,127.1372750"},{"id":"1683","title":"\uc784\uc2e4\uad70 \ud55c\uc625\uc9d1","address":"\uc804\ub77c\ubd81\ub3c4 \uc784\uc2e4\uad70","latlng":"35.6178286,127.2890774"},{"id":"1682","title":"\uc804\uc8fc\uc2dc \uc544\uc9112\ud3d0\ud130\ub110","address":"\uc804\ubd81 \uc804\uc8fc\uc2dc \ub355\uc9c4\uad6c \ub3d9\ubd80\ub300\ub85c 420","latlng":"35.8296463,127.1760854"},{"id":"1680","title":"\uc804\uc8fc\uc2dc \uc18c\ub098\ubb34\uacf5\ubc29(\uc678\uad00) ","address":"\uc804\ubd81 \uc804\uc8fc\uc2dc \ub355\uc9c4\uad6c \ubd93\ub0b44\uae38 8-2","latlng":"35.8674553,127.1221767"},{"id":"1678","title":"\uc804\uc8fc\uc2dc \uc18c\ub098\ubb34\uacf5\ubc29(1\uce35) ","address":"\uc804\ubd81 \uc804\uc8fc\uc2dc \ub355\uc9c4\uad6c \ubd93\ub0b44\uae38 8-2","latlng":"35.8674553,127.1221767"},{"id":"1676","title":"\uc644\uc8fc\uad70 \ub69d\ubc29\uae38 ","address":"\uc804\ubd81 \uc644\uc8fc\uad70 \uc18c\uc591\uba74 \uc624\ub3c4\uae38 24","latlng":"35.9047643,127.2397073"},{"id":"1675","title":"\uc804\uc8fc\uc2dc \uc804\ubd81\uc9c0\ubc29\uacbd\ucc30\uccad \uad11\uc5ed\uc218\uc0ac\ub300(\uc870\uc9c1\ubc94\uc8c4\uc218\uc0ac\ud300)","address":"\uc804\ubd81 \uc804\uc8fc\uc2dc \ub355\uc9c4\uad6c \uc628\uace0\uc744\ub85c 299 \uc804\ubd81\uc9c0\ubc29\uacbd\ucc30\uccad \uad11\uc5ed\uc218\uc0ac\ub300\uc9c0\ubc88\uc804\ubd81 \uc804\uc8fc\uc2dc \ub355\uc9c4\uad6c \ud314\ubcf5\ub3d93\uac00 360-1","latlng":"35.8425906,127.0930354"},{"id":"1674","title":"\uc804\uc8fc\uc2dc \uc804\ubd81\uc9c0\ubc29\uacbd\ucc30\uccad \uad11\uc5ed\uc218\uc0ac\ub300(\uc678\uad00,\ubcf5\ub3c4)","address":"\uc804\ubd81 \uc804\uc8fc\uc2dc \ub355\uc9c4\uad6c \uc628\uace0\uc744\ub85c 299 \uc804\ubd81\uc9c0\ubc29\uacbd\ucc30\uccad \uad11\uc5ed\uc218\uc0ac\ub300\uc9c0\ubc88\uc804\ubd81 \uc804\uc8fc\uc2dc \ub355\uc9c4\uad6c \ud314\ubcf5\ub3d93\uac00 360-1","latlng":"35.8425906,127.0930354"},{"id":"1673","title":"\uc804\uc8fc\uc2dc \uc804\ubd81\uc9c0\ubc29\uacbd\ucc30\uccad \uad11\uc5ed\uc218\uc0ac\ub300(\uac15\ub825\ubc94\uc8c4\uc218\uc0ac\ud300)","address":"\uc804\ubd81 \uc804\uc8fc\uc2dc \ub355\uc9c4\uad6c \uc628\uace0\uc744\ub85c 299 \uc804\ubd81\uc9c0\ubc29\uacbd\ucc30\uccad \uad11\uc5ed\uc218\uc0ac\ub300\uc9c0\ubc88\uc804\ubd81 \uc804\uc8fc\uc2dc \ub355\uc9c4\uad6c \ud314\ubcf5\ub3d93\uac00 360-1","latlng":"35.8425906,127.0930354"},{"id":"1672","title":"\ubd80\uc548\uad70 \ubd80\uc548\uc790\uc5f0\uc0dd\ud0dc\uacf5\uc6d0 ","address":"\uc804\ubd81 \ubd80\uc548\uad70 \uc904\ud3ec\uba74 \uc0dd\ud0dc\uacf5\uc6d0\ub85c 170 \ubd80\uc548\uc790\uc5f0\uc0dd\ud0dc\uacf5\uc6d0","latlng":"35.5791238,126.6669582"},{"id":"1671","title":"\uc804\uc8fc\uc2dc \uc804\uc8fc\uc885\ud569\uacbd\uae30\uc7a5(\ubcf5\uc2f1\uad00) ","address":"\uc804\ubd81 \uc804\uc8fc\uc2dc \ub355\uc9c4\uad6c \uae30\ub9b0\ub300\ub85c 451 \uc804\uc8fc\uc885\ud569\uacbd\uae30\uc7a5","latlng":"35.8389977,127.1263112"},{"id":"1670","title":"\uc784\uc2e4\uad70 \uc804\ub77c\ubd81\ub3c4\uc885\ud569\uc0ac\uaca9\uc7a5(\ud074\ub808\uc774\uc0ac\uaca9) ","address":"\uc804\ubd81 \uc784\uc2e4\uad70 \uccad\uc6c5\uba74 \uad6c\uace0\ub9ac \uc0b046","latlng":"35.5918593,127.1905891"},{"id":"1669","title":"\uc784\uc2e4\uad70 \uc784\uc2e4\uce58\uc988\ud14c\ub9c8\ud30c\ud06c(\uce58\uc988\uad00) ","address":"\uc804\ubd81 \uc784\uc2e4\uad70 \uc131\uc218\uba74 \ub3c4\uc7782\uae38 50","latlng":"35.6331020,127.3012578"},{"id":"1667","title":"\uc775\uc0b0\uc2dc \uc804\ubd81\ub300\ud559\uad50 \uc775\uc0b0\ucea0\ud37c\uc2a4(\uc804\ubd81\ub300\ud559\uad50 \ud2b9\uc131\ud654\ucea0\ud37c\uc2a4) ","address":"\uc804\ubd81 \uc775\uc0b0\uc2dc \uace0\ubd09\ub85c 79 \uc804\ubd81\ub300\ud559\uad50\uc775\uc0b0\ucea0\ud37c\uc2a4","latlng":"35.9426186,126.9588848"},{"id":"1666","title":"\uc21c\ucc3d\uad70 \uba54\ubc00\uaf43\ud544\ubb34\ub835 ","address":"\uc804\ubd81 \uc21c\ucc3d\uad70 \uad6c\ub9bc\uba74 \uac15\ucc9c\ub85c 845-1","latlng":"35.4250505,127.0644845"},{"id":"1665","title":"\uc21c\ucc3d\uad70 \uace0\ucd94\uc7a5\uc775\ub294\ub9c8\uc744 \ud39c\uc158 ","address":"\uc804\ub77c\ubd81\ub3c4 \uc21c\ucc3d\uad70 \uad6c\ub9bc\uba74 \uc0b0\ub0b4\uae38 38","latlng":"35.4837870,127.1166503"},{"id":"1664","title":"\ub0a8\uc6d0\uc2dc \ucf04\uc2f1\ud134\ub9ac\uc870\ud2b8 ","address":"\uc804\ubd81 \ub0a8\uc6d0\uc2dc \uc18c\ub9ac\uae38 66","latlng":"35.4020570,127.3849000"},{"id":"1663","title":"\ub0a8\uc6d0\uc2dc \uc0ac\ub791\ubc29 ","address":"\uc804\ubd81 \ub0a8\uc6d0\uc2dc \uc591\ub9bc\uae38 46 \ubaa9\ud3ec\ub099\uc9c0\ucd0c","latlng":"35.4016705,127.3899426"},{"id":"1662","title":"\ub0a8\uc6d0\uc2dc \ub0a8\uc6d0\ud56d\uacf5\uc6b0\uc8fc\ucc9c\ubb38\ub300 ","address":"\uc804\ubd81 \ub0a8\uc6d0\uc2dc \uc591\ub9bc\uae38 48-63 \ub0a8\uc6d0\ud56d\uacf5\uc6b0\uc8fc\ucc9c\ubb38\ub300","latlng":"35.3991940,127.3873883"},{"id":"1661","title":"\ub0a8\uc6d0\uc2dc \ub0a8\uc6d0\uc2dc\ubbfc\ub3c4\uc608\ub300\ud559 ","address":"\uc804\ubd81 \ub0a8\uc6d0\uc2dc \uc591\ub9bc\uae38 14-16\uc9c0\ubc88\uc804\ubd81 \ub0a8\uc6d0\uc2dc \uc5b4\ud604\ub3d9 37-146","latlng":"35.4011562,127.3854105"},{"id":"1660","title":"\uae40\uc81c\uc2dc-\ub3d9\uc9c4\uac15 \ud734\uac8c\uc18c(\ub3d9\uc9c4\uac15 \uc11d\ucd08\ud734\uac8c\uc18c) ","address":"\uc804\ubd81 \uae40\uc81c\uc2dc \uc8fd\uc0b0\uba74 \uc6d4\uc8fd\ub85c 11-19\uc9c0\ubc88\uc804\ubd81 \uae40\uc81c\uc2dc \uc8fd\uc0b0\uba74 \uc11c\ud3ec\ub9ac 577-32","latlng":"35.7586978,126.7803213"},{"id":"1659","title":"\uc804\uc8fc\uc2dc \uc804\ubd81\ub300\ud559\uad50\ubcd1\uc6d0(\ubcf8\uad001\uce35\ub85c\ube44) ","address":"\uc804\ubd81 \uc804\uc8fc\uc2dc \ub355\uc9c4\uad6c \uac74\uc9c0\ub85c 20 \uc804\ubd81\ub300\ud559\uad50\ubcd1\uc6d0","latlng":"35.8470974,127.1411626"},{"id":"1658","title":"\uc804\uc8fc\uc2dc \ud504\ub9ac\ubaa8 ","address":"\uc804\ubd81 \uc804\uc8fc\uc2dc \uc644\uc0b0\uad6c \ud64d\uc0b03\uae38 7","latlng":"35.8183091,127.1081689"},{"id":"1657","title":"\uc804\uc8fc\uc2dc \ubcf4\ub098\ubca0\ub760(\uc804\ubd81\ub3c4\uccad\uc810) ","address":"\uc804\ubd81 \uc804\uc8fc\uc2dc \uc644\uc0b0\uad6c \ud64d\uc0b0\ub0a8\ub85c 48","latlng":"35.8155481,127.1069774"},{"id":"1656","title":"\uc804\uc8fc\uc2dc \uc774\ud654\uc6d0 ","address":"\uc804\ubd81 \uc804\uc8fc\uc2dc \uc644\uc0b0\uad6c \ud64d\uc0b02\uae38 5-12","latlng":"35.8151568,127.1101581"},{"id":"1655","title":"\uae40\uc81c\uc2dc \uc0bc\uc131\uc0dd\uba85 \uc5f0\uc218\uc6d0(\uc0bc\uc131\uc0dd\uba85\uc804\uc8fc\uc5f0\uc218\uc18c\ubcf8\uad00) ","address":"\uc804\ubd81 \uae40\uc81c\uc2dc \uae08\uad6c\uba74 \ubd09\ub450\ub85c 132","latlng":"35.7770105,127.0164911"},{"id":"1654","title":"\uc804\uc8fc\uc2dc \uc804\uc8fc\uc18c\ub9ac\ubb38\ud654\uad00 ","address":"\uc804\ubd81 \uc804\uc8fc\uc2dc \uc644\uc0b0\uad6c \ud55c\uc9c0\uae38 56\uc9c0\ubc88\uc804\ubd81 \uc804\uc8fc\uc2dc \uc644\uc0b0\uad6c \ud48d\ub0a8\ub3d93\uac00 32-3","latlng":"35.8178040,127.1532848"},{"id":"1653","title":"\uc804\uc8fc\uc2dc-\ubbf8\ub2c8\uc2a4\ud1b1 \ud3c9\ud654\ud604\ub300\uc810 ","address":"\uc804\ubd81 \uc804\uc8fc\uc2dc \uc644\uc0b0\uad6c \ub9cf\ub0b43\uae38 8\uc9c0\ubc88\uc804\ubd81 \uc804\uc8fc\uc2dc \uc644\uc0b0\uad6c \ud3c9\ud654\ub3d91\uac00 705-8","latlng":"35.7929471,127.1312560"},{"id":"1652","title":"\uc784\uc2e4\uad70-\ub300\uc815\uc81c(\ub300\uc815\uc800\uc218\uc9c0) \uac00\uc2dc\uc5f0\uaf43\uc790\uc0dd\uc9c0(\uc5ec\ub984) ","address":"\uc804\ubd81 \uc784\uc2e4\uad70 \uc9c0\uc0ac\uba74 \uc548\ud558\ub9ac","latlng":"35.5851059,127.3512519"},{"id":"1651","title":"\uc644\uc8fc\uad70 \ud3d0\uacf5\uc7a5 ","address":"\uc804\ub77c\ubd81\ub3c4 \uc644\uc8fc\uad70 \uc6b4\uc8fc\uba74 \uc6d0\uc7a5\uc120\ub85c 42-153","latlng":"36.0790469,127.2856787"},{"id":"1650","title":"\uc644\uc8fc\uad70-\ud3d0\uac74\ubb3c(\ud3d0\uad11) ","address":"\uc804\ub77c\ubd81\ub3c4 \uc644\uc8fc\uad70 \uc6b4\uc8fc\uba74 \uc7a5\uc120\ub9ac \uc0b076","latlng":"36.0772798,127.2851863"},{"id":"1649","title":"\uc644\uc8fc\uad70-\uacf5\ud130(\ud3d0\uad11) ","address":"\uc804\ubd81 \uc804\uc8fc\uc2dc \uc644\uc0b0\uad6c \uc18c\ub300\ubc30\uae30\ub85c 22","latlng":"35.7869162,127.1326482"},{"id":"1647","title":"\uc784\uc2e4\uad70 \uc131\uc218\uc0b0\uc790\uc5f0\ud734\uc591\ub9bc ","address":"\uc804\ubd81 \uc784\uc2e4\uad70 \uc131\uc218\uba74 \uc131\uc218\ub9ac \uc0b0124","latlng":"35.6300691,127.4244783"},{"id":"1646","title":"\uc784\uc2e4\uad70 \uc784\uc2e4\uce58\uc988\ud14c\ub9c8\ud30c\ud06c(\ud64d\ubcf4\uad00) ","address":"\uc804\ubd81 \uc784\uc2e4\uad70 \uc131\uc218\uba74 \ub3c4\uc7782\uae38 50","latlng":"35.6331020,127.3012578"},{"id":"1645","title":"\uc644\uc8fc\uad70 \uc804\ubd81\ub3c4\ub9bd\ubbf8\uc220\uad00(\uc678\ubd80) ","address":"\uc804\ubd81 \uc644\uc8fc\uad70 \uad6c\uc774\uba74 \ubaa8\uc545\uc0b0\uae38 111-6 \uc804\ubd81\ub3c4\ub9bd\ubbf8\uc220\uad00","latlng":"35.7277043,127.1069564"},{"id":"1642","title":"\uc784\uc2e4\uad70 \uc784\uc2e4\uad70\ubcf4\uac74\uc758\ub8cc\uc6d0(\uc2dd\ub2f9,\uae30\uacc4\uc2e4) ","address":"\uc804\ubd81 \uc784\uc2e4\uad70 \uc784\uc2e4\uc74d \ud638\uad6d\ub85c 1680 \uc784\uc2e4\uad70 \ubcf4\uac74\uc758\ub8cc\uc6d0","latlng":"35.6125122,127.2869436"},{"id":"1641","title":"\uc784\uc2e4\uad70 \uc784\uc2e4\uad70\ubcf4\uac74\uc758\ub8cc\uc6d0(\uc678\ubd80) ","address":"\uc804\ubd81 \uc784\uc2e4\uad70 \uc784\uc2e4\uc74d \ud638\uad6d\ub85c 1680 \uc784\uc2e4\uad70 \ubcf4\uac74\uc758\ub8cc\uc6d0","latlng":"35.6125122,127.2869436"},{"id":"1640","title":"\ub0a8\uc6d0\uc2dc \uad6c)\ub0a8\uc6d0\uae30\ub3c5\uad50\ubcf5\uc74c\ubcd1\uc6d0(\uc625\uc0c1,\uc678\uad00)- \ud604)\ub2e4\uc0ac\ub791\uc77c\ubc18\uc694\uc591\ubcd1\uc6d0 ","address":"\uc804\ub77c\ubd81\ub3c4 \ub0a8\uc6d0\uc2dc \uc0b0\uace1\uae38 55","latlng":"35.4265772,127.3709804"},{"id":"1639","title":"\ub0a8\uc6d0\uc2dc \uad6c)\ub0a8\uc6d0\uae30\ub3c5\uad50\ubcf5\uc74c\ubcd1\uc6d0(8\uce35)- \ud604)\ub2e4\uc0ac\ub791\uc77c\ubc18\uc694\uc591\ubcd1\uc6d0 ","address":"\uc804\ub77c\ubd81\ub3c4 \ub0a8\uc6d0\uc2dc \uc0b0\uace1\uae38 55","latlng":"35.4265772,127.3709804"},{"id":"1638","title":"\ub0a8\uc6d0\uc2dc \uad6c)\ub0a8\uc6d0\uae30\ub3c5\uad50\ubcf5\uc74c\ubcd1\uc6d0(3\uce35~7\uce35)-\ud604)\ub2e4\uc0ac\ub791\uc77c\ubc18\uc694\uc591\ubcd1\uc6d0","address":"\uc804\ub77c\ubd81\ub3c4 \ub0a8\uc6d0\uc2dc \uc0b0\uace1\uae38 55","latlng":"35.4265772,127.3709804"},{"id":"1637","title":"\ub0a8\uc6d0\uc2dc \uad6c)\ub0a8\uc6d0\uae30\ub3c5\uad50\ubcf5\uc74c\ubcd1\uc6d0(2\uce35)-\ud604)\ub2e4\uc0ac\ub791\uc77c\ubc18\uc694\uc591\ubcd1\uc6d0 ","address":"\uc804\ub77c\ubd81\ub3c4 \ub0a8\uc6d0\uc2dc \uc0b0\uace1\uae38 55","latlng":"35.4265772,127.3709804"},{"id":"1636","title":"\ub0a8\uc6d0\uc2dc \uad6c)\ub0a8\uc6d0\uae30\ub3c5\uad50\ubcf5\uc74c\ubcd1\uc6d0(1\uce35)- \ud604)\ub2e4\uc0ac\ub791\uc77c\ubc18\uc694\uc591\ubcd1\uc6d0","address":"\uc804\ub77c\ubd81\ub3c4 \ub0a8\uc6d0\uc2dc \uc0b0\uace1\uae38 55","latlng":"35.4265772,127.3709804"},{"id":"1635","title":"\uc804\uc8fc\uc2dc \uc804\uc8fc\uc9c4\ubd81\ucd08\ub4f1\ud559\uad50(\uad50\uc815) ","address":"\uc804\ubd81 \uc804\uc8fc\uc2dc \ub355\uc9c4\uad6c \uc9c4\ubd811\uae38 11 \uc9c4\ubd81\ucd08\ub4f1\ud559\uad50","latlng":"35.8262464,127.1318905"},{"id":"1634","title":"\uc804\uc8fc\uc2dc \uc804\uc8fc\uc9c4\ubd81\ucd08\ub4f1\ud559\uad50(\uad50\uc2e4) ","address":"\uc804\ubd81 \uc804\uc8fc\uc2dc \ub355\uc9c4\uad6c \uc9c4\ubd811\uae38 11 \uc9c4\ubd81\ucd08\ub4f1\ud559\uad50","latlng":"35.8262464,127.1318905"},{"id":"1633","title":"\uc804\uc8fc\uc2dc \uc804\uc8fc\uc9c4\ubd81\ucd08\ub4f1\ud559\uad50(\ubcf5\ub3c4,\uacc4\ub2e8) ","address":"\uc804\ubd81 \uc804\uc8fc\uc2dc \ub355\uc9c4\uad6c \uc9c4\ubd811\uae38 11 \uc9c4\ubd81\ucd08\ub4f1\ud559\uad50","latlng":"35.8262464,127.1318905"},{"id":"1632","title":"\uc804\uc8fc\uc2dc \uc804\uc8fc\uc9c4\ubd81\ucd08\ub4f1\ud559\uad50(\uc57c\uad6c\uc5f0\uc2b5\uc7a5) ","address":"\uc804\ubd81 \uc804\uc8fc\uc2dc \ub355\uc9c4\uad6c \uc9c4\ubd811\uae38 11 \uc9c4\ubd81\ucd08\ub4f1\ud559\uad50","latlng":"35.8262464,127.1318905"},{"id":"1630","title":"\uc804\uc8fc\uc2dc \uc804\uc8fc\ube44\uc804\ub300\ud559(\ucd1d\uc7a5\uc2e4,\ube44\uc11c\uc2e4) ","address":"\uc804\ubd81 \uc804\uc8fc\uc2dc \uc644\uc0b0\uad6c \ucc9c\uc7a0\ub85c 235","latlng":"35.8088972,127.0926289"},{"id":"1629","title":"\uc804\uc8fc\uc2dc \uc804\uc8fc\ub300\ud559\uad50(\ucd1d\uc7a5 \ube44\uc11c\uc2e4) ","address":"\uc804\ubd81 \uc804\uc8fc\uc2dc \uc644\uc0b0\uad6c \ud6a8\uc790\ub3d93\uac00 1080-1 \uc804\uc8fc\ub300\ud559\uad50","latlng":"35.8189413,127.0884728"},{"id":"1628","title":"\uc804\uc8fc\uc2dc \uc804\uc8fc\ub300\ud559\uad50(\uc2e4\uc678\ub18d\uad6c\uc7a5) ","address":"\uc804\ubd81 \uc804\uc8fc\uc2dc \uc644\uc0b0\uad6c \ud6a8\uc790\ub3d93\uac00 1080-1 \uc804\uc8fc\ub300\ud559\uad50","latlng":"35.8189413,127.0884728"},{"id":"1627","title":"\uc784\uc2e4\uad70 \ud574\uc6d4\uc554 ","address":"\uc804\ubd81 \uc784\uc2e4\uad70 \uc624\uc218\uba74 \uc624\uc2188\uae38 49-30\uc9c0\ubc88\uc804\ubd81 \uc784\uc2e4\uad70 \uc624\uc218\uba74 \ub300\uba85\ub9ac 725","latlng":"35.5370769,127.3229006"},{"id":"1626","title":"\uc784\uc2e4\uad70-\uc8fd\ub9bc\uc554 ","address":"\uc804\ubd81 \uc784\uc2e4\uad70 \uc784\uc2e4\uc74d \ud638\ubc18\ub85c 79-53\uc9c0\ubc88\uc804\ubd81 \uc784\uc2e4\uad70 \uc784\uc2e4\uc74d \uc131\uac00\ub9ac 525","latlng":"35.6168037,127.2697199"},{"id":"1625","title":"\uc804\uc8fc\uc2dc-\ucf54\uc624\ub871\ub5a1\ubc29\uc557\uac04 ","address":"\uc804\ubd81 \uc804\uc8fc\uc2dc \uc644\uc0b0\uad6c \ud3c9\ud65414\uae38 28-12 \ucf54\uc624\ub871\uc544\ud30c\ud2b8 \uc0c1\uac00\uc9c0\ud558 b8","latlng":"35.7934061,127.1342270"},{"id":"1624","title":"\ub0a8\uc6d0\uc2dc \uad6c)\ub0a8\uc6d0\uae30\ub3c5\uad50\ubcf5\uc74c\ubcd1\uc6d0(B1\uce35)- \ud604)\ub2e4\uc0ac\ub791\uc77c\ubc18\uc694\uc591\ubcd1\uc6d0","address":"\uc804\ub77c\ubd81\ub3c4 \ub0a8\uc6d0\uc2dc \uc0b0\uace1\uae38 55","latlng":"35.4265772,127.3709804"},{"id":"1623","title":"\uc804\uc8fc\uc2dc \ubd81\uacbd\ub8e8 ","address":"\uc804\ubd81 \uc804\uc8fc\uc2dc \uc644\uc0b0\uad6c \uc0c8\ud130\ub85c 120","latlng":"35.8353925,127.1198308"},{"id":"1621","title":"\uc784\uc2e4\uad70 \uc784\uc2e4\uad70\ubcf4\uac74\uc758\ub8cc\uc6d0(\ub0b4\ubd80) ","address":"\uc804\ubd81 \uc784\uc2e4\uad70 \uc784\uc2e4\uc74d \ud638\uad6d\ub85c 1680 \uc784\uc2e4\uad70 \ubcf4\uac74\uc758\ub8cc\uc6d0","latlng":"35.6125122,127.2869436"},{"id":"1620","title":"\uad70\uc0b0\uc2dc \uad6c)\uad70\uc0b0\ud574\uc591\uacbd\ucc30\uc11c ","address":"\uc804\ubd81 \ubd80\uc548\uad70 \ubcc0\uc0b0\uba74 \uc0c8\ub9cc\uae08\ub85c 447-27 \ubd80\uc548\ud574\uc591\uacbd\ucc30\uc11c \uac00\ub825\ub3c4\ucd9c\uc7a5\uc18c\uc9c0\ubc88\uc804\ubd81 \ubd80\uc548\uad70 \ubcc0\uc0b0\uba74 \ub300\ud56d\ub9ac 586","latlng":"35.7268748,126.5314010"},{"id":"1619","title":"\ubd80\uc548\uad70 \uacc4\ud654\ub9c8\uc744 \uc9c4\uc785\ub85c ","address":"\uc804\ub77c\ubd81\ub3c4 \ubd80\uc548\uad70 \uacc4\ud654\uba74 \ucc3d\ubd81\ub9ac 472","latlng":"35.7614554,126.6977953"},{"id":"1618","title":"\uc804\uc8fc\uc2dc \uc804\uc8fc\uc6d4\ub4dc\ucef5\uacbd\uae30\uc7a5(\ubcf5\ub3c4) ","address":"\uc804\ubd81 \uc804\uc8fc\uc2dc \ub355\uc9c4\uad6c \uae30\ub9b0\ub300\ub85c 1055","latlng":"35.8680847,127.0645093"},{"id":"1617","title":"\uc804\uc8fc\uc2dc \uc804\uc8fc\uae30\uc804\ub300\ud559 \uad6c)\uae30\uc804\uc5ec\uc790\uace0\ub4f1\ud559\uad50(\uad50\uc815) ","address":"\uc804\ubd81 \uc804\uc8fc\uc2dc \uc644\uc0b0\uad6c \uc804\uc8fc\ucc9c\uc11c\ub85c 267 \uc804\uc8fc\uae30\uc804\ub300\ud559","latlng":"35.8173544,127.1356801"},{"id":"1616","title":"\uc804\uc8fc\uc2dc \uc804\uc8fc\ud55c\uc625\ub9c8\uc744(\ud55c\ubcbd\uadf9\uc7a5 \uc55e \uace8\ubaa9) ","address":"\uc804\ubd81 \uc804\uc8fc\uc2dc \uc644\uc0b0\uad6c \uad50\ub3d9 69-1","latlng":"35.8144465,127.1526425"},{"id":"1615","title":"\uc804\uc8fc\uc2dc \uc804\uc8fc\ud55c\uc625\ub9c8\uc744(\uc8fc\ud0dd1) ","address":"\uc804\ubd81 \uc804\uc8fc\uc2dc \uc644\uc0b0\uad6c \uad50\ub3d9 69-1","latlng":"35.8144465,127.1526425"},{"id":"1614","title":"\uc804\uc8fc\uc2dc \uc804\uc8fc\ud55c\uc625\ub9c8\uc744(\uc804\uc8fc\uba85\ud488\uad00 \uc55e \uace8\ubaa9) ","address":"\uc804\ubd81 \uc804\uc8fc\uc2dc \uc644\uc0b0\uad6c \uad50\ub3d9 69-1","latlng":"35.8144465,127.1526425"},{"id":"1613","title":"\uc804\uc8fc\uc2dc \uc804\uc8fc\ud55c\uc625\ub9c8\uc744(\uace8\ubaa9) ","address":"\uc804\ubd81 \uc804\uc8fc\uc2dc \uc644\uc0b0\uad6c \uad50\ub3d9 69-1","latlng":"35.8144465,127.1526425"},{"id":"1612","title":"\uc804\uc8fc\uc2dc \uc9c4\ubbf8\ubc18\uc810 ","address":"\uc804\ubd81 \uc804\uc8fc\uc2dc \ub355\uc9c4\uad6c \uba85\uc8fc3\uae38 19-2","latlng":"35.8433494,127.1483887"},{"id":"1611","title":"\uc804\uc8fc\uc2dc \ub355\uc9c4\uad6c\uccad(2\uce35 \uac15\ub2f9) ","address":"\uc804\ubd81 \uc804\uc8fc\uc2dc \ub355\uc9c4\uad6c \ubc9a\uaf43\ub85c 55 \ub355\uc9c4\uad6c\uccad","latlng":"35.8294000,127.1343620"},{"id":"1610","title":"\uc784\uc2e4\uad70 \uc784\uc2e4\uce58\uc988\ud14c\ub9c8\ud30c\ud06c(\uc678\ubd80) ","address":"\uc804\ubd81 \uc784\uc2e4\uad70 \uc131\uc218\uba74 \ub3c4\uc7782\uae38 50","latlng":"35.6331020,127.3012578"},{"id":"1609","title":"\uad70\uc0b0\uc2dc \uc6d4\uba85\uc720\ub78c\uc120(\ube44\uc751\ub3c4\ud56d) ","address":"\uc804\ubd81 \uad70\uc0b0\uc2dc \ube44\uc751\ub3c4\ub3d9 98","latlng":"35.9385882,126.5310916"},{"id":"1608","title":"\uc804\uc8fc\uc2dc \ub355\uc9c4\uad11\uc7a5 ","address":"\uc804\ubd81 \uc804\uc8fc\uc2dc \ub355\uc9c4\uad6c \ub355\uc9c4\ub3d91\uac00","latlng":"35.8471820,127.1255750"},{"id":"1607","title":"\uc804\uc8fc\uc2dc \uc804\uc8fc\uae30\uc804\ub300\ud559 \uac15\ub2f9(2\uce35 \uccb4\uc721\uad00) ","address":"\uc804\ubd81 \uc804\uc8fc\uc2dc \uc644\uc0b0\uad6c \uc804\uc8fc\ucc9c\uc11c\ub85c 267\uc9c0\ubc88\uc804\ubd81 \uc804\uc8fc\uc2dc \uc644\uc0b0\uad6c \uc911\ud654\uc0b0\ub3d91\uac00 177","latlng":"35.8173544,127.1356801"},{"id":"1606","title":"\uc804\uc8fc\uc2dc \uc804\uc8fc\uae30\uc804\ub300\ud559 \uac15\ub2f9(1\uce35 \ucc44\ud50c\uc2e4) ","address":"\uc804\ubd81 \uc804\uc8fc\uc2dc \uc644\uc0b0\uad6c \uc804\uc8fc\ucc9c\uc11c\ub85c 267\uc9c0\ubc88\uc804\ubd81 \uc804\uc8fc\uc2dc \uc644\uc0b0\uad6c \uc911\ud654\uc0b0\ub3d91\uac00 177","latlng":"35.8173544,127.1356801"},{"id":"1605","title":"\uace0\ucc3d\uad70 \uc120\uc6b4\uc0ac ","address":"\uc804\ubd81 \uace0\ucc3d\uad70 \uc544\uc0b0\uba74 \uc120\uc6b4\uc0ac\ub85c 250 \uc120\uc6b4\uc0ac","latlng":"35.4976972,126.5795156"},{"id":"1604","title":"\ub0a8\uc6d0\uc2dc \ucd98\ud5a5\ud14c\ub9c8\ud30c\ud06c ","address":"\uc804\ubd81 \ub0a8\uc6d0\uc2dc \uc591\ub9bc\uae38 14-9","latlng":"35.4017971,127.3870909"},{"id":"1603","title":"\ub0a8\uc6d0\uc2dc \uc11c\ub0a8\ub300\ud559\uad50 ","address":"\uc804\ubd81 \ub0a8\uc6d0\uc2dc \ube44\uc11d\uae38 214-16","latlng":"35.4136754,127.3850341"},{"id":"1602","title":"\ub0a8\uc6d0\uc2dc \ub0a8\uc6d0\uc5ed ","address":"\uc804\ubd81 \ub0a8\uc6d0\uc2dc \uad50\ub8e1\ub85c 71","latlng":"35.4112875,127.3613430"},{"id":"1601","title":"\uad70\uc0b0\uc2dc \uad70\uc0b0\uacf5\ud56d(\ub0b4\ubd80) ","address":"\uc804\ubd81 \uad70\uc0b0\uc2dc \uc625\uc11c\uba74 \uc0b0\ub3d9\uae38 2 \uad70\uc0b0\uacf5\ud56d","latlng":"35.9264436,126.6156054"},{"id":"1600","title":"\uc804\uc8fc\uc2dc \uc804\uc8fc\ud5a5\uad50 ","address":"\uc804\ubd81 \uc804\uc8fc\uc2dc \uc644\uc0b0\uad6c \ud5a5\uad50\uae38 139 \uc804\uc8fc\ud5a5\uad50","latlng":"35.8121863,127.1572280"},{"id":"1598","title":"\uc804\uc8fc\uc2dc \uc804\uc8fc\uc11c\ubb38\uad50\ud68c(\uc678\uad00) ","address":"\uc804\ubd81 \uc804\uc8fc\uc2dc \uc644\uc0b0\uad6c \uc804\uc8fc\ucc9c\ub3d9\ub85c 220","latlng":"35.8163118,127.1402910"},{"id":"1597","title":"\uc804\uc8fc\uc2dc-\uc804\uc8fc\uc0b0\ub3cc\uad50\ud68c(\uc678\uad00) ","address":"\uc804\ubd81 \uc804\uc8fc\uc2dc \uc644\uc0b0\uad6c \ub530\ubc15\uace89\uae38 41","latlng":"35.8105293,127.1301785"},{"id":"1596","title":"\uae40\uc81c\uc2dc \uae40\uc81c\uc911\uc559\uc7a5\ub85c\uad50\ud68c ","address":"\uc804\ubd81 \uae40\uc81c\uc2dc \uc911\uc559\ub85c 196-8","latlng":"35.7994295,126.8941169"},{"id":"1595","title":"\uc815\uc74d\uc2dc \uce60\uace1\ubcf8\ub2f9 \ub2a5\uad50\uacf5\uc18c(\ubb38\uad50\ucc9c\uc8fc\uad50\ud68c) ","address":"\uc804\ub77c\ubd81\ub3c4 \uc815\uc74d\uc2dc \uc0b0\ub0b4\uba74 \ub2a5\uad50\uc2e0\uae30\uae38 12-10","latlng":"35.5698607,127.0210589"},{"id":"1594","title":"\uc815\uc74d\uc2dc \uc2e0\ud0dc\uc778\ub300\uad50 \uc606 \ub2e4\ub9ac ","address":"\uc804\ubd81 \uc815\uc74d\uc2dc \uc2e0\ud0dc\uc778\uc74d \uc2e0\uc6a9\ub9ac","latlng":"35.6964000,126.8687000"},{"id":"1593","title":"\uc815\uc74d\uc2dc \uc0b0\ub0b4\uc0ac\uac70\ub9ac \ubd80\uadfc \ubc8c\ud310 ","address":"\uc804\ub77c\ubd81\ub3c4 \uc815\uc74d\uc2dc \uc0b0\ub0b4\uba74 \ub2a5\uad502\uae38 18","latlng":"35.5672626,127.0291017"},{"id":"1592","title":"\uc815\uc74d\uc2dc \uac10\uace1\ub85c \ud3d0\uacf5\uc7a5 ","address":"\uc804\ub77c\ubd81\ub3c4 \uc815\uc74d\uc2dc \uac10\uace1\uba74 \ud654\ubd09\ub9ac 445","latlng":"35.7180031,126.9394453"},{"id":"1591","title":"\uc804\uc8fc\uc2dc \uc804\uc8fc\uc885\ud569\uacbd\uae30\uc7a5(\ucd95\uad6c\uc7a5) ","address":"\uc804\ubd81 \uc804\uc8fc\uc2dc \ub355\uc9c4\uad6c \uae30\ub9b0\ub300\ub85c 451 \uc804\uc8fc\uc885\ud569\uacbd\uae30\uc7a5","latlng":"35.8389977,127.1263112"},{"id":"1590","title":"\uc804\uc8fc\uc2dc TheK\uc190\ud574\ubcf4\ud5d8\ucf5c\uc13c\ud130(\uad50\uc6d0\uacf5\uc81c\ud68c\uad00 \ub0b4) ","address":"\uc804\ubd81 \uc804\uc8fc\uc2dc \uc644\uc0b0\uad6c \uc628\uace0\uc744\ub85c 1","latlng":"35.8333081,127.1221280"},{"id":"1589","title":"\uc21c\ucc3d\uad70 \ud6c8\ubabd\uc7ac ","address":"\uc804\ubd81 \uc21c\ucc3d\uad70 \uc30d\uce58\uba74 \ub454\uc8042\uae38 83 \ud6c8\ubabd\uc7ac","latlng":"35.4726598,126.9684227"},{"id":"1588","title":"\uc21c\ucc3d\uad70 \uc591\uc9c0\uad50 ","address":"\uc804\ubd81 \uc21c\ucc3d\uad70 \uc21c\ucc3d\uc74d \ub0a8\uacc4\ub9ac","latlng":"35.3737000,127.1492000"},{"id":"1587","title":"\uc21c\ucc3d\uad70 \uc21c\ucc3d\ud5a5\uad00\uad11\ub18d\uc6d0 ","address":"\uc804\ubd81 \uc21c\ucc3d\uad70 \uad6c\ub9bc\uba74 \uc6d4\uc815\ub9ac 411","latlng":"35.4315099,127.0580639"},{"id":"1586","title":"\uc21c\ucc3d\uad70 \uc21c\ucc3d\uad70\uccad(\uc678\uad00) ","address":"\uc804\ubd81 \uc21c\ucc3d\uad70 \uc21c\ucc3d\uc74d \uacbd\ucc9c\ub85c 33","latlng":"35.3744760,127.1374890"},{"id":"1585","title":"\uc21c\ucc3d\uad70 \ud3d0\uc0ac\ubb34\uc2e4 ","address":"\uc804\ub77c\ubd81\ub3c4 \uc21c\ucc3d\uad70 \ud314\ub355\uba74 \uac15\ucc9c\ub85c 478","latlng":"35.4014574,127.0867087"},{"id":"1584","title":"\uc21c\ucc3d\uad70 \uc21c\ucc3d\uccad\uc18c\ub144\uc13c\ud130(\uc678\uad00) ","address":"\uc804\ubd81 \uc21c\ucc3d\uad70 \uc21c\ucc3d\uc74d \uc7a5\ub958\ub85c 192","latlng":"35.3718038,127.1265264"},{"id":"1583","title":"\uc21c\ucc3d\uad70 \ubb38\uc625\ub840\ud560\uba38\ub2c8\uace0\ucd94\uc7a5 ","address":"\uc804\ubd81 \uc21c\ucc3d\uad70 \uc21c\ucc3d\uc74d \ubbfc\uc18d\ub9c8\uc744\uae38 56-9","latlng":"35.3670212,127.1082146"},{"id":"1581","title":"\ubb34\uc8fc\uad70 \uc8fc\ud0dd(\ubcc4\uc7a5) 3 ","address":"\uc804\ubd81 \ubb34\uc8fc\uad70 \ubb34\uc8fc\uc74d \ub2e8\ucc9c\ub85c4\uae38 19","latlng":"36.0095319,127.6595736"},{"id":"1580","title":"\ubb34\uc8fc\uad70 \uc8fc\ud0dd(\ubcc4\uc7a5) 2 ","address":"\uc804\ubd81 \ubb34\uc8fc\uad70 \uc548\uc131\uba74 \uc815\ucc9c2\uae38 24-4\uc9c0\ubc88\uc804\ubd81 \ubb34\uc8fc\uad70 \uc548\uc131\uba74 \ub355\uc0b0\ub9ac 920-2","latlng":"35.8602501,127.6816168"},{"id":"1579","title":"\ubb34\uc8fc\uad70 \uc8fc\ud0dd(\ubcc4\uc7a5) 1 ","address":"\uc804\ubd81 \ubb34\uc8fc\uad70 \ubb34\uc8fc\uc74d \ud55c\uc218\ub85c2\uae38 13","latlng":"36.0124746,127.6615961"},{"id":"1578","title":"\ubb34\uc8fc\uad70 \uc55e\uc12c\ub2e4\ub9ac \uc778\uadfc ","address":"\uc804\ub77c\ubd81\ub3c4 \ubb34\uc8fc\uad70 \ubb34\uc8fc\uc74d \ub0b4\ub3c4\ub9ac 1814-5","latlng":"36.0192661,127.6451995"},{"id":"1577","title":"\ubb34\uc8fc\uad70 \uc232\uae38 2 ","address":"\uc804\ubd81 \ubb34\uc8fc\uad70 \uc124\ucc9c\uba74 \ubb34\uc124\ub85c 1607 \ubb34\uc8fc119\uc548\uc804\uc13c\ud130\uc124\ucc9c\uc9c0\uc5ed\ub300","latlng":"36.0082038,127.7897128"},{"id":"1576","title":"\ubb34\uc8fc\uad70 \uc232\uae38 1 ","address":"\uacbd\ub0a8 \uac70\ucc3d\uad70 \ubd81\uc0c1\uba74 \ubb35\uacc4\uae38 44-4\uc9c0\ubc88\uacbd\ub0a8 \uac70\ucc3d\uad70 \ubd81\uc0c1\uba74 \uac08\uacc4\ub9ac \uc0b028-1","latlng":"35.7815225,127.8181828"},{"id":"1575","title":"\ubb34\uc8fc\uad70 \uad6c\ucc9c\ub3d9 2\uacbd \uc740\uad6c\uc554 ","address":"\uc804\ub77c\ubd81\ub3c4 \ubb34\uc8fc\uad70 \uc124\ucc9c\uba74 \ub450\uae38\ub9ac 640-7","latlng":"35.9726428,127.7842799"},{"id":"1573","title":"\ubb34\uc8fc\uad70 \uc124\ucc9c\uba74 \ub450\uae38\ub9ac 2 ","address":"\uc804\ub77c\ubd81\ub3c4 \ubb34\uc8fc\uad70 \uc124\ucc9c\uba74 \ub450\uae38\ub9ac 640-4","latlng":"35.9728700,127.7843696"},{"id":"1572","title":"\ubb34\uc8fc\uad70 \uc124\ucc9c\uba74 \ub450\uae38\ub9ac 1 ","address":"\uc804\ub77c\ubd81\ub3c4 \ubb34\uc8fc\uad70 \uc124\ucc9c\uba74 \ub450\uae38\ub9ac 640-4","latlng":"35.9728700,127.7843696"},{"id":"1571","title":"\ubb34\uc8fc\uad70 \uc124\ucc9c\uba74 \uae30\uace1\ub9ac ","address":"\uc804\ubd81 \ubb34\uc8fc\uad70 \uc124\ucc9c\uba74 \ubb38\uc554\uae38 84-4","latlng":"36.0076968,127.7245957"},{"id":"1570","title":"\ubb34\uc8fc\uad70 \ubd80\ub0a8\uba74 \ub300\uc720\ub9ac ","address":"\uc804\ubd81 \ubb34\uc8fc\uad70 \ubd80\ub0a8\uba74 \ub300\ud64d\ub85c 23","latlng":"35.9851330,127.5554180"},{"id":"1569","title":"\ubb34\uc8fc\uad70 \ubd80\ub0a8\uba74 \uad74\uc554\ub9ac ","address":"\uc804\ubd81 \ubb34\uc8fc\uad70 \ubd80\ub0a8\uba74 \uc0c1\uad74\uc554\uae38 15","latlng":"35.9888679,127.5865327"},{"id":"1568","title":"\ubb34\uc8fc\uad70 \ubd80\ub0a8\uba74 \uace0\ucc3d\ub9ac ","address":"\uc804\ub77c\ubd81\ub3c4 \ubb34\uc8fc\uad70 \ubd80\ub0a8\uba74 \uace0\ucc3d\ub9ac 671-4","latlng":"35.9335027,127.5653339"},{"id":"1567","title":"\ubb34\uc8fc\uad70 \ubb34\uc8fc\uc74d \ub0b4\ub3c4\ub9ac ","address":"\uc804\ub77c\ubd81\ub3c4 \ubb34\uc8fc\uad70 \ubb34\uc8fc\uc74d \ub0b4\ub3d9\uae38 21","latlng":"36.0456234,127.6494400"},{"id":"1566","title":"\ubb34\uc8fc\uad70 \uae08\uac15 \ucc9c\ubcc0 ","address":"\uc804\ub77c\ubd81\ub3c4 \ubb34\uc8fc\uad70 \ubd80\ub0a8\uba74 \uad74\uc554\ub85c 170","latlng":"35.9882787,127.5883633"},{"id":"1565","title":"\uad70\uc0b0\uc2dc \uc57c\ubbf8\uc804\ub9dd\ub300 ","address":"\uc804\ubd81 \uad70\uc0b0\uc2dc \uc625\ub3c4\uba74 \uc57c\ubbf8\ub3c44\uae38 36","latlng":"35.8408548,126.4889988"},{"id":"1564","title":"\uad70\uc0b0\uc2dc \uc57c\ubbf8\ub3c4 \ubc14\ub2e4 ","address":"\uc804\ubd81 \uad70\uc0b0\uc2dc \uc625\ub3c4\uba74 \uc57c\ubbf8\ub3c4\ub9ac","latlng":"35.8438688,126.4914282"},{"id":"1562","title":"\uad70\uc0b0\uc2dc \uc2e0\uc2dc\ub3c4\ucd08\ub4f1\ud559\uad50 \uc57c\ubbf8\ub3c4\ubd84\uad50 ","address":"\uc804\ubd81 \uad70\uc0b0\uc2dc \uc625\ub3c4\uba74 \uc57c\ubbf8\ub3c43\uae38 12 \uc57c\ubbf8\ub3c4 \ubd84\uad50\uc7a5","latlng":"35.8419454,126.4921603"},{"id":"1561","title":"\uae40\uc81c\uc2dc \uae08\uad6c \uc2f8\ub9ac\uc7ac ","address":"\uc804\ubd81 \uae40\uc81c\uc2dc \uae08\uad6c\uba74 \uc120\uc554\ub9ac","latlng":"35.7602000,127.0301000"},{"id":"1559","title":"\ubd80\uc548\uad70 \ud30c\uc7a5\uae08\ud56d(\ub9c8\uc744) ","address":"\uc804\ubd81 \ubd80\uc548\uad70 \uc704\ub3c4\uba74 \uc9c4\ub9ac","latlng":"35.6084000,126.3052000"},{"id":"1557","title":"\uc644\uc8fc\uad70 \ubc31\uc81c\uc608\uc220\ub300\ud559 \uc55e \ub3c4\ub85c ","address":"\uc804\ubd81 \uc644\uc8fc\uad70 \ubd09\ub3d9\uc74d \ubc31\uc81c\ub300\ud559\ub85c 171 \ubc31\uc81c\uc608\uc220\ub300\ud559","latlng":"35.9958257,127.1274070"},{"id":"1556","title":"\uc775\uc0b0\uc2dc \uc775\uc0b0\ubb38\ud654\uc6d0(\uc678\ubd80) ","address":"\uc804\ubd81 \uc775\uc0b0\uc2dc \uc5b4\uc591\ub3d9 94-2","latlng":"35.9554925,126.9873124"},{"id":"1555","title":"\uc775\uc0b0\uc2dc \uc775\uc0b0\uacbd\ucc30\uc11c ","address":"\uc804\ubd81 \uc775\uc0b0\uc2dc \ubc30\uc0b0\ub85c 165-12","latlng":"35.9538017,126.9399246"},{"id":"1554","title":"\uc784\uc2e4\uad70 \ub300\uace1\ub9ac~\uc624\uc218\uac04 \ub3c4\ub85c ","address":"\uc804\ub77c\ubd81\ub3c4 \uc784\uc2e4\uad70 \uc784\uc2e4\uc74d \ub300\uace1\ub9ac 967","latlng":"35.5960563,127.3032271"},{"id":"1553","title":"\uc9c4\uc548\uad70 \uc9c4\uc548\ud64d\uc0bc\uc2a4\ud30c \uc625\uc0c1\uc5d0\uc11c \ubc14\ub77c\ubcf8 \ub9c8\uc774\uc0b0 ","address":"\uc804\ubd81 \uc9c4\uc548\uad70 \uc9c4\uc548\uc74d \uc678\uc0ac\uc591\uae38 16-10","latlng":"35.7761561,127.4174905"},{"id":"1552","title":"\uc9c4\uc548\uad70 \ubc31\uc6b4\uba74 \ubb3c\ub808\ubc29\uc544 ","address":"\uc804\ub77c\ubd81\ub3c4 \uc9c4\uc548\uad70 \ubc31\uc6b4\uba74 \uc6b4\uad50\ub9ac 976-2","latlng":"35.7006296,127.3894988"},{"id":"1551","title":"\uc775\uc0b0\uc2dc \uc775\uc0b0\uc5b4\ub9b0\uc774\uc9d1 ","address":"\uc804\ubd81 \uc775\uc0b0\uc2dc \ub3d9\ucc9c\ub85c3\uae38 9 \uc775\uc0b0\uc5b4\ub9b0\uc774\uc9d1","latlng":"35.9301347,126.9677375"},{"id":"1549","title":"\ub0a8\uc6d0\uc2dc \uc815\ub839\uce58 ","address":"\uc804\ubd81 \ub0a8\uc6d0\uc2dc \uc8fc\ucc9c\uba74 \uc815\ub839\uce58\ub85c 1523","latlng":"35.3638195,127.5220291"},{"id":"1548","title":"\uc775\uc0b0\uc2dc \uc775\uc0b0\uc5ed ","address":"\uc804\ubd81 \uc775\uc0b0\uc2dc \uc775\uc0b0\ub300\ub85c 153 \uc775\uc0b0\uc5ed","latlng":"35.9398081,126.9441327"},{"id":"1547","title":"\ubd80\uc548\uad70 \uc9c4\ub9d0\uace0\uac1c ","address":"\uc804\ubd81 \ubd80\uc548\uad70 \uc704\ub3c4\uba74 \uc704\ub3c4\ub85c 1457","latlng":"35.5928209,126.2899858"},{"id":"1546","title":"\uc644\uc8fc\uad70 \ubaa8\ub798\uc7ac ","address":"\uc804\ubd81 \uc644\uc8fc\uad70 \uc18c\uc591\uba74 \ud654\uc2ec\ub9ac","latlng":"35.8356000,127.2699000"},{"id":"1543","title":"\uc804\uc8fc\uc2dc TBN\uc804\uc8fc\uad50\ud1b5\ubc29\uc1a1(\uad50\ud1b5\uc0c1\ud669\uc2e4) ","address":"\uc804\ubd81 \uc804\uc8fc\uc2dc \ub355\uc9c4\uad6c \uc815\uc5ec\ub9bd\ub85c 1097-10","latlng":"35.8473374,127.0812691"},{"id":"1541","title":"\uc804\uc8fc\uc2dc \uc804\uc8fc\ud6a8\uc790\ucd08\ub4f1\ud559\uad50(\ubcf5\ub3c4&\uacc4\ub2e8) ","address":"\uc804\ubd81 \uc804\uc8fc\uc2dc \uc644\uc0b0\uad6c \uc1a1\uc815\ub85c 47 \uc804\uc8fc\ud6a8\uc790\ucd08\ub4f1\ud559\uad50","latlng":"35.8033401,127.1225803"},{"id":"1540","title":"\uc804\uc8fc\uc2dc \uc804\uc8fc\ud6a8\uc790\ucd08\ub4f1\ud559\uad50(\uad50\uc2e4) ","address":"\uc804\ubd81 \uc804\uc8fc\uc2dc \uc644\uc0b0\uad6c \uc1a1\uc815\ub85c 47 \uc804\uc8fc\ud6a8\uc790\ucd08\ub4f1\ud559\uad50","latlng":"35.8033401,127.1225803"},{"id":"1539","title":"\uc804\uc8fc\uc2dc \uc804\uc8fc\ud6a8\uc790\ucd08\ub4f1\ud559\uad50(\uad50\ubb34\uc2e4) ","address":"\uc804\ubd81 \uc804\uc8fc\uc2dc \uc644\uc0b0\uad6c \uc1a1\uc815\ub85c 47 \uc804\uc8fc\ud6a8\uc790\ucd08\ub4f1\ud559\uad50","latlng":"35.8033401,127.1225803"},{"id":"1538","title":"\uc804\uc8fc\uc2dc \uc804\uc8fc\ud48d\ub0a8\ucd08\ub4f1\ud559\uad50(\uccb4\uc721\uad00) ","address":"\uc804\ubd81 \uc804\uc8fc\uc2dc \uc644\uc0b0\uad6c \ub0a8\ub178\uc1a1\ub3d9","latlng":"35.8192420,127.1590000"},{"id":"1537","title":"\uc804\uc8fc\uc2dc \uc804\uc8fc\ud48d\ub0a8\ucd08\ub4f1\ud559\uad50(\uad50\ubb38) ","address":"\uc804\ubd81 \uc804\uc8fc\uc2dc \uc644\uc0b0\uad6c \ub0a8\ub178\uc1a1\ub3d9","latlng":"35.8192420,127.1590000"},{"id":"1534","title":"\uc804\uc8fc\uc2dc \uc804\uc8fc\ub0a8\uc911\ud559\uad50(\ubcf5\ub3c4&\uacc4\ub2e8) ","address":"\uc804\ubd81 \uc804\uc8fc\uc2dc \uc644\uc0b0\uad6c \ub355\uc801\uace82\uae38 30 \uc804\uc8fc\ub0a8\uc911\ud559\uad50","latlng":"35.7961500,127.1402500"},{"id":"1533","title":"\uc804\uc8fc\uc2dc \uc804\uc8fc\ub0a8\uc911\ud559\uad50(\uc8fc\ubcc0\ud658\uacbd) ","address":"\uc804\ubd81 \uc804\uc8fc\uc2dc \uc644\uc0b0\uad6c \ub355\uc801\uace82\uae38 30 \uc804\uc8fc\ub0a8\uc911\ud559\uad50","latlng":"35.7961500,127.1402500"},{"id":"1532","title":"\uc804\uc8fc\uc2dc \uc804\uc8fc\ub0a8\uc911\ud559\uad50(\uad50\uc2e4) ","address":"\uc804\ubd81 \uc804\uc8fc\uc2dc \uc644\uc0b0\uad6c \ub355\uc801\uace82\uae38 30 \uc804\uc8fc\ub0a8\uc911\ud559\uad50","latlng":"35.7961500,127.1402500"},{"id":"1531","title":"\uc804\uc8fc\uc2dc \uc804\uc8fc\ub0a8\uc911\ud559\uad50(\uad50\ubb34\uc2e4) ","address":"\uc804\ubd81 \uc804\uc8fc\uc2dc \uc644\uc0b0\uad6c \ub355\uc801\uace82\uae38 30 \uc804\uc8fc\ub0a8\uc911\ud559\uad50","latlng":"35.7961500,127.1402500"},{"id":"1530","title":"\uace0\ucc3d\uad70 \ud559\uc6d0\ub18d\uc7a5(\ucd94\uc218 \uc804) ","address":"\uc804\ubd81 \uace0\ucc3d\uad70 \uacf5\uc74c\uba74 \ud559\uc6d0\ub18d\uc7a5\uae38 154","latlng":"35.3753528,126.5429035"},{"id":"1529","title":"\uae40\uc81c\uc2dc \ub9cc\uacbd\uc74d3 ","address":"\uc804\ubd81 \uae40\uc81c\uc2dc \ub9cc\uacbd\ub85c 814","latlng":"35.8525994,126.8167639"},{"id":"1528","title":"\uae40\uc81c\uc2dc \ub9cc\uacbd\uc74d2 ","address":"\uc804\ubd81 \uae40\uc81c\uc2dc \ub9cc\uacbd\uc74d \ub300\ub3d9\uacf5\ub2e81\uae38 27","latlng":"35.8453810,126.8619693"},{"id":"1526","title":"\uc804\uc8fc\uc2dc \uc2a4\ud0c0\uad00\uad11\uc5ec\ud589\uc0ac ","address":"\uc804\ubd81 \uc804\uc8fc\uc2dc \uc644\uc0b0\uad6c \ub178\uc1a1\uc5ec\uc6b81\uae38 5","latlng":"35.8239709,127.1464135"},{"id":"1525","title":"\uc804\uc8fc\uc2dc \uc804\uc8fc\ucc9c(\ub0a8\ubd80\uc2dc\uc7a5\uc778\uadfc) ","address":"\uc804\ubd81 \uc804\uc8fc\uc2dc \ub355\uc9c4\uad6c \uc9c4\ubd81\ub3d9","latlng":"35.8279732,127.1314290"},{"id":"1524","title":"\uc804\uc8fc\uc2dc \uc804\uc8fc\ucc9c ","address":"\uc804\ubd81 \uc804\uc8fc\uc2dc \ub355\uc9c4\uad6c \uc9c4\ubd81\ub3d9","latlng":"35.8279732,127.1314290"},{"id":"1523","title":"\uc804\uc8fc\uc2dc \ub300\uc1a1\uc7a5\ub840\uc2dd\uc7a5(\ud2b98\ud638\uc2e4) ","address":"\uc804\ubd81 \uc804\uc8fc\uc2dc \ub355\uc9c4\uad6c \ub3d9\ubd80\ub300\ub85c 1015 1\uce35 \ub300\uc1a1\uc7a5\ub840\uc2dd\uc7a5","latlng":"35.8686810,127.1363679"},{"id":"1522","title":"\uc804\uc8fc\uc2dc \ub300\uc1a1\uc7a5\ub840\uc2dd\uc7a5(\ud2b97\ud638\uc2e4) ","address":"\uc804\ubd81 \uc804\uc8fc\uc2dc \ub355\uc9c4\uad6c \ub3d9\ubd80\ub300\ub85c 1015 1\uce35 \ub300\uc1a1\uc7a5\ub840\uc2dd\uc7a5","latlng":"35.8686810,127.1363679"},{"id":"1521","title":"\uc804\uc8fc\uc2dc \ub300\uc1a1\uc7a5\ub840\uc2dd\uc7a5(\ub85c\ube44&\uc678\uad00) ","address":"\uc804\ubd81 \uc804\uc8fc\uc2dc \ub355\uc9c4\uad6c \ub3d9\ubd80\ub300\ub85c 1015 1\uce35 \ub300\uc1a1\uc7a5\ub840\uc2dd\uc7a5","latlng":"35.8686810,127.1363679"},{"id":"1520","title":"\uc804\uc8fc\uc2dc \ub300\uc1a1\uc7a5\ub840\uc2dd\uc7a5(6\ud638\uc2e4) ","address":"\uc804\ubd81 \uc804\uc8fc\uc2dc \ub355\uc9c4\uad6c \ub3d9\ubd80\ub300\ub85c 1015 1\uce35 \ub300\uc1a1\uc7a5\ub840\uc2dd\uc7a5","latlng":"35.8686810,127.1363679"},{"id":"1519","title":"\uc804\uc8fc\uc2dc \ub300\uc1a1\uc7a5\ub840\uc2dd\uc7a5(5\ud638\uc2e4) ","address":"\uc804\ubd81 \uc804\uc8fc\uc2dc \ub355\uc9c4\uad6c \ub3d9\ubd80\ub300\ub85c 1015 1\uce35 \ub300\uc1a1\uc7a5\ub840\uc2dd\uc7a5","latlng":"35.8686810,127.1363679"},{"id":"1518","title":"\uae40\uc81c\uc2dc \uc8fd\uc0b0\uba74 \uad6c)\ud558\uc2dc\ubaa8\ud1a0\ub18d\uc7a5\uc0ac\ubb34\uc2e4 ","address":"\uc804\ubd81 \uae40\uc81c\uc2dc \uc8fd\uc0b0\uba74 \uc8fd\uc0b0\ub85c 113-11\uc9c0\ubc88\uc804\ubd81 \uae40\uc81c\uc2dc \uc8fd\uc0b0\uba74 \uc8fd\uc0b0\ub9ac 570-20","latlng":"35.7690292,126.8138690"},{"id":"1517","title":"\uc804\uc8fc\uc2dc \uc5f0\uc218\uc694\uc591\ubcd1\uc6d0(\uc7a5\ub840\uc2dd\uc7a5\uc678\uad00,\uc8fc\ucc28\uc7a5) ","address":"\uc804\ubd81 \uc804\uc8fc\uc2dc \uc644\uc0b0\uad6c \uc465\uace0\uac1c\uc61b\uae38 118 \uc5f0\uc218\uc694\uc591\ubcd1\uc6d0","latlng":"35.7938750,127.0768000"},{"id":"1516","title":"\ubb34\uc8fc\uad70 \ubc18\ub514\ub9c8\uc2e4\uae38 ","address":"\uc804\ub77c\ubd81\ub3c4 \ubb34\uc8fc\uad70 \ubd80\ub0a8\uba74 \ub300\uc18c\ub9ac 1621-3","latlng":"35.9723392,127.5497616"},{"id":"1515","title":"\ubb34\uc8fc\uad70 \uc0bc\ubc29\ucd08\ub4f1\ud559\uad50(\ud3d0\uad50) ","address":"\uc804\ubd81 \ubb34\uc8fc\uad70 \uc801\uc0c1\uba74 \uc0c1\ube44\uae38 8-14","latlng":"35.9232298,127.6137294"},{"id":"1514","title":"\uc804\uc8fc\uc2dc \uc608\uce58\uacfc(\uc678\ubd80) ","address":"\uc804\ubd81 \uc804\uc8fc\uc2dc \uc644\uc0b0\uad6c \ud3c9\ud654\ub85c 215\uc9c0\ubc88\uc804\ubd81 \uc804\uc8fc\uc2dc \uc644\uc0b0\uad6c \ud3c9\ud654\ub3d91\uac00 718-9","latlng":"35.7957901,127.1362554"},{"id":"1512","title":"\uad70\uc0b0\uc2dc \uad70\uc0b0\uc758\ub8cc\uc6d0 ","address":"\uc804\ubd81 \uad70\uc0b0\uc2dc \uc758\ub8cc\uc6d0\ub85c 27 \uad70\uc0b0\uc758\ub8cc\uc6d0","latlng":"35.9549526,126.7117407"},{"id":"1508","title":"\uc804\uc8fc\uc2dc \uc804\uc8fc\uacf5\uc5c5\uace0\ub4f1\ud559\uad50(\uc2e4\uc2b5\uc2e4) ","address":"\uc804\ubd81 \uc804\uc8fc\uc2dc \ub355\uc9c4\uad6c \uc5ec\uc0b0\ub85c 101","latlng":"35.8628687,127.0752209"},{"id":"1500","title":"\uae40\uc81c\uc2dc \uba85\ud488\uae38(\uae08\uad6c) ","address":"\uc804\ubd81 \uae40\uc81c\uc2dc \uae08\uad6c\uba74 \uc624\ubd091\uae38 26","latlng":"35.7874474,127.0468147"},{"id":"1499","title":"\uc804\uc8fc\uc2dc \uc804\uc8fc\uc0c1\uacf5\ud68c\uc758\uc18c(5\uce35 \ub300\ud68c\uc758\uc2e4)-\uc8fc\uc18c\uc774\uc804 ","address":"\uc804\ub77c\ubd81\ub3c4 \uc804\uc8fc\uc2dc \uc644\uc0b0\uad6c \uc804\ub3d9 140-11","latlng":"35.8155720,127.1471185"},{"id":"1498","title":"\uc644\uc8fc\uad70 \uc644\uc8fc\uacbd\ucc30\uc11c(3\uce35 \uac15\ub2f9) ","address":"\uc804\ubd81 \uc644\uc8fc\uad70 \ubd09\ub3d9\uc74d \ubd09\ub3d9\ub85c 28","latlng":"35.9274091,127.1672338"},{"id":"1497","title":"\uc784\uc2e4\uad70 \uc7a5\uc0b0\ub9c8\uc744 ","address":"\uc804\ubd81 \uc784\uc2e4\uad70 \ub355\uce58\uba74 \uc7a5\uc554\ub9ac","latlng":"35.4769000,127.1547000"},{"id":"1496","title":"\uc7a5\uc218\uad70 \uc7a5\uc548\uc804\ud1b5\ubb38\ud654\uc608\uc220\ucd0c[\uad6c)\uc7a5\uc548\ucd08\ub4f1\ud559\uad50(\ud3d0\uad50)] ","address":"\uc804\ubd81 \uc7a5\uc218\uad70 \uacc4\ub0a8\uba74 \uc7a5\uc548\uc0b0\ub85c 315-5","latlng":"35.6770510,127.5927130"},{"id":"1495","title":"\uc9c4\uc548\uad70 \uc8fd\ub3c4 ","address":"\uc804\ubd81 \uc9c4\uc548\uad70 \uc9c4\uc548\uc74d \uac00\ub9c9\ub9ac","latlng":"35.8027000,127.5080000"},{"id":"1494","title":"\uc804\ub77c\ubd81\ub3c4 \uc0c8\ub9cc\uae08 \uc0c1\uc124\uacf5\uc5f0 \uc544\ub9ac\uc6b8\uc544\ud2b8\ud640 ","address":"\uc804\ubd81 \uae40\uc81c\uc2dc \uc9c4\ubd09\uba74 \uc0c8\ub9cc\uae08\ub85c 1500","latlng":"35.8125657,126.4835364"},{"id":"1493","title":"\uc7a5\uc218\uad70 \ub3c4\uae68\ube44\ub3d9\uad74 ","address":"\uc804\ubd81 \uc7a5\uc218\uad70 \uacc4\ub0a8\uba74 \uc7a5\uc548\ub9ac","latlng":"35.6518000,127.5926000"},{"id":"1492","title":"\uc804\uc8fc\uc2dc-\ud638\ub0a8\uae30\uc0ac\uc2dd\ub2f9 ","address":"\uc804\ubd81 \uc804\uc8fc\uc2dc \ub355\uc9c4\uad6c \uc2e0\ubcf5\ucc9c\ubcc0\ub85c 40","latlng":"35.8577069,127.1050238"},{"id":"1491","title":"\uc804\uc8fc\uc2dc-\uc804\uc8fc\ub300\ud559\uad50[\uad6c)\uc911\uc559\ub3c4\uc11c\uad00] ","address":"\uc804\ubd81 \uc804\uc8fc\uc2dc \uc644\uc0b0\uad6c \ucc9c\uc7a0\ub85c 303","latlng":"35.8141581,127.0901464"},{"id":"1490","title":"\uc804\uc8fc\uc2dc-\uc804\ub3d9\uc131\ub2f9(\uc0dd\ud65c\uad00) ","address":"\uc804\ubd81 \uc804\uc8fc\uc2dc \uc644\uc0b0\uad6c \ud0dc\uc870\ub85c 51","latlng":"35.8131987,127.1495897"},{"id":"1489","title":"\uc804\uc8fc\uc2dc-\uc804\ub3d9\uc131\ub2f9(\uad50\uc721\uad00) ","address":"\uc804\ubd81 \uc804\uc8fc\uc2dc \uc644\uc0b0\uad6c \ud0dc\uc870\ub85c 51","latlng":"35.8131987,127.1495897"},{"id":"1488","title":"\uc804\uc8fc\uc2dc-\uc6b0\uc544\ub3d9 \ubaa8\ud154\ucd0c ","address":"\uc804\ub77c\ubd81\ub3c4 \uc804\uc8fc\uc2dc \ub355\uc9c4\uad6c \uc6b0\uc544\ub3d93\uac00 752-44","latlng":"35.8479724,127.1590121"},{"id":"1487","title":"\uc804\uc8fc\uc2dc-\uc644\uc0b0\uacbd\ucc30\uc11c(5\uce35 \uac15\ub2f9) ","address":"\uc804\ubd81 \uc804\uc8fc\uc2dc \uc644\uc0b0\uad6c \ub9c8\uc804\ub4e4\ub85c 1","latlng":"35.8212641,127.0961670"},{"id":"1486","title":"\uc804\uc8fc\uc2dc-\uc5f0\uc218\uc694\uc591\ubcd1\uc6d0(\uc7a5\ub840\uc2dd\uc7a5) ","address":"\uc804\ubd81 \uc804\uc8fc\uc2dc \uc644\uc0b0\uad6c \uc465\uace0\uac1c\uc61b\uae38 118 \uc5f0\uc218\uc694\uc591\ubcd1\uc6d0","latlng":"35.7938750,127.0768000"},{"id":"1485","title":"\uc804\uc8fc\uc2dc-\uc5e0\ub9c8\uc624\uc0ac\ub791\ubcd1\uc6d0(\uc7a5\ub840\uc2dd\uc7a5) ","address":"\uc804\ubd81 \uc804\uc8fc\uc2dc \uc644\uc0b0\uad6c \uc11c\uc6d0\ub85c 402-35 \uc5e0\ub9c8\uc624\uc0ac\ub791\ubcd1\uc6d0","latlng":"35.8126263,127.1371040"},{"id":"1484","title":"\uc804\uc8fc\uc2dc-\uae08\uc624\uc5ec\uad00(\uc678\uad00) ","address":"\uc804\ubd81 \uc804\uc8fc\uc2dc \ub355\uc9c4\uad6c \uc6a9\uc0b02\uae38 12-8\uc9c0\ubc88\uc804\ubd81 \uc804\uc8fc\uc2dc \ub355\uc9c4\uad6c \uae08\uc554\ub3d9 764-12","latlng":"35.8356728,127.1307967"},{"id":"1483","title":"\uc804\uc8fc\uc2dc-\uace0\uc18d\uc6d0\ub8f8(\uc678\uad00) ","address":"\uc804\ubd81 \uc804\uc8fc\uc2dc \ub355\uc9c4\uad6c \uc6a9\uc0b01\uae38 6-2","latlng":"35.8354559,127.1297831"},{"id":"1482","title":"\uc775\uc0b0\uc2dc-\uc6d0\uad11\ubcf4\uac74\ub300\ud559(\ud559\uc7a5\uc2e4\uac74\ubb3c) ","address":"\uc804\ubd81 \uc775\uc0b0\uc2dc \uc775\uc0b0\ub300\ub85c 514 \uc6d0\uad11\ubcf4\uac74\ub300\ud559","latlng":"35.9716881,126.9551797"},{"id":"1481","title":"\uc804\uc8fc\uc2dc-\uc804\ub77c\ubd81\ub3c4\uccb4\uc721\ud68c\uad00(\ud39c\uc2f1\uc7a5) ","address":"\uc804\ubd81 \uc804\uc8fc\uc2dc \ub355\uc9c4\uad6c \ub4e4\uc0ac\ud3c9\ub85c 62","latlng":"35.8409861,127.1261800"},{"id":"1480","title":"\uc804\uc8fc\uc2dc-\uc804\ub77c\ubd81\ub3c4\uccb4\uc721\ud68c\uad00(\uc2e4\ub0b4\ud6c8\ub828\uc7a5) ","address":"\uc804\ubd81 \uc804\uc8fc\uc2dc \ub355\uc9c4\uad6c \ub4e4\uc0ac\ud3c9\ub85c 62","latlng":"35.8409861,127.1261800"},{"id":"1479","title":"\uc804\uc8fc\uc2dc-\uc804\ub77c\ubd81\ub3c4\uccb4\uc721\ud68c\uad00(\uac80\ub3c4\uc7a5) ","address":"\uc804\ubd81 \uc804\uc8fc\uc2dc \ub355\uc9c4\uad6c \ub4e4\uc0ac\ud3c9\ub85c 62","latlng":"35.8409861,127.1261800"},{"id":"1478","title":"\uc784\uc2e4\uad70-\uc804\ub77c\ubd81\ub3c4\uc885\ud569\uc0ac\uaca9\uc7a5(25M) ","address":"\uc804\ubd81 \uc784\uc2e4\uad70 \uccad\uc6c5\uba74 \uad6c\uace0\ub9ac \uc0b046","latlng":"35.5918593,127.1905891"},{"id":"1477","title":"\uc784\uc2e4\uad70-\uc804\ub77c\ubd81\ub3c4\uc885\ud569\uc0ac\uaca9\uc7a5(10M) ","address":"\uc804\ubd81 \uc784\uc2e4\uad70 \uccad\uc6c5\uba74 \uad6c\uace0\ub9ac \uc0b046","latlng":"35.5918593,127.1905891"},{"id":"1476","title":"\uc784\uc2e4\uad70-\uc804\ub77c\ubd81\ub3c4\uc885\ud569\uc0ac\uaca9\uc7a5(\uacb0\uc120\uc0ac\uaca9\uc7a5(10M),PT\uc0ac\uaca9\uc7a5) ","address":"\uc804\ubd81 \uc784\uc2e4\uad70 \uccad\uc6c5\uba74 \uad6c\uace0\ub9ac \uc0b046","latlng":"35.5918593,127.1905891"},{"id":"1475","title":"\uc804\uc8fc\uc2dc-\uc9c4\ubd81\ub3d9 \uc8fc\ud0dd ","address":"\uc804\ubd81 \uc804\uc8fc\uc2dc \ub355\uc9c4\uad6c \ubc18\ucd0c5\uae38 2","latlng":"35.8296315,127.1449527"},{"id":"1474","title":"\uc804\uc8fc\uc2dc-\ud559\uc778\ub2f9 ","address":"\uc804\ubd81 \uc804\uc8fc\uc2dc \uc644\uc0b0\uad6c \ud5a5\uad50\uae38 45\uc9c0\ubc88\uc804\ubd81 \uc804\uc8fc\uc2dc \uc644\uc0b0\uad6c \uad50\ub3d9 105-4","latlng":"35.8121596,127.1518481"},{"id":"1473","title":"\uc804\uc8fc\uc2dc-\uc624\ubaa9\ub300\uc0ac\ub791\ucc44 ","address":"\uc804\ubd81 \uc804\uc8fc\uc2dc \uc644\uc0b0\uad6c \uc740\ud589\ub85c 69\uc9c0\ubc88\uc804\ubd81 \uc804\uc8fc\uc2dc \uc644\uc0b0\uad6c \uad50\ub3d9 63-13","latlng":"35.8139332,127.1529210"},{"id":"1472","title":"\uc804\uc8fc\uc2dc-\uc591\ubc18\uac00 ","address":"\uc804\ubd81 \uc804\uc8fc\uc2dc \uc644\uc0b0\uad6c \ucd5c\uba85\ud76c\uae38 30-2 \uc591\ubc18\uac00\uc9c0\ubc88\uc804\ubd81 \uc804\uc8fc\uc2dc \uc644\uc0b0\uad6c \ud48d\ub0a8\ub3d93\uac00 79-2","latlng":"35.8161705,127.1512239"},{"id":"1471","title":"\uc804\uc8fc\uc2dc-\ub3d9\ub77d\uc6d0 ","address":"\uc804\ubd81 \uc804\uc8fc\uc2dc \uc644\uc0b0\uad6c \uc740\ud589\ub85c 33-6 \ub3d9\ub77d\uc6d0\uc9c0\ubc88\uc804\ubd81 \uc804\uc8fc\uc2dc \uc644\uc0b0\uad6c \ud48d\ub0a8\ub3d93\uac00 44","latlng":"35.8168732,127.1526551"},{"id":"1470","title":"\uc804\uc8fc\uc2dc \uad50\ub3d9 \ub5a1\uac08\ube44 ","address":"\uc9c0\ubc88\uad50\ub3d9 175-3","latlng":","},{"id":"1469","title":"\uc784\uc2e4\uad70 \uc8fc\ud0dd(\uc131\uc218\uc0b0\ud734\uc591\ub9bc \uc778\uadfc) ","address":"\uc804\ubd81 \uc784\uc2e4\uad70 \uc131\uc218\uba74 \ucd98\ud5a5\ub85c 2530","latlng":"35.6129071,127.3235750"},{"id":"1467","title":"\uc804\uc8fc\uc2dc \uc0b0\ubbfc\uc7ac ","address":"\uc804\ubd81 \uc804\uc8fc\uc2dc \uc644\uc0b0\uad6c \ud5a5\uad50\uae38 153","latlng":"35.8123147,127.1580143"},{"id":"1466","title":"\uc804\uc8fc\uc2dc \uc804\uc8fcMBC \uc678\uad00 ","address":"\uc804\ubd81 \uc804\uc8fc\uc2dc \uc644\uc0b0\uad6c \uc120\ub108\uba381\uae38 50","latlng":"35.8145389,127.1259621"},{"id":"1465","title":"\uc804\uc8fc\uc2dc \uc804\uc8fcMBC 1\uce35 \uc2e4\ub0b4\uce74\ud398 ","address":"\uc804\ubd81 \uc804\uc8fc\uc2dc \uc644\uc0b0\uad6c \uc120\ub108\uba381\uae38 50","latlng":"35.8145389,127.1259621"},{"id":"1464","title":"\uc804\uc8fc\uc2dc \uc804\uc8fcMBC 1\uce35 \ub85c\ube44 ","address":"\uc804\ubd81 \uc804\uc8fc\uc2dc \uc644\uc0b0\uad6c \uc120\ub108\uba381\uae38 50","latlng":"35.8145389,127.1259621"},{"id":"1463","title":"\uc804\uc8fc\uc2dc \uc804\ubd81\ub300\ud559\uad50(\uc720\ub3c4\uad00) ","address":"\uc804\ubd81 \uc804\uc8fc\uc2dc \ub355\uc9c4\uad6c \ubc31\uc81c\ub300\ub85c 567","latlng":"35.8462574,127.1320049"},{"id":"1462","title":"\uc804\uc8fc\uc2dc KT \ub0b4 \uc6e8\ub529\ud640 ","address":"\uc804\ubd81 \uc804\uc8fc\uc2dc \uc644\uc0b0\uad6c \uc628\uace0\uc744\ub85c 29","latlng":"35.8333723,127.1202549"},{"id":"1461","title":"\uc804\uc8fc\uc2dc KT \ub0b4 KFG(\uc790\uc0b0\uad00\ub9ac\ud68c\uc0ac)","address":"\uc804\ubd81 \uc804\uc8fc\uc2dc \uc644\uc0b0\uad6c \uc628\uace0\uc744\ub85c 29","latlng":"35.8333723,127.1202549"},{"id":"1460","title":"\uc804\uc8fc\uc2dc KT \ub0b4 \ud55c\ubc31(\uc790\uc0b0\uad00\ub9ac\ud68c\uc0ac) ","address":"\uc804\ubd81 \uc804\uc8fc\uc2dc \uc644\uc0b0\uad6c \uc628\uace0\uc744\ub85c 29","latlng":"35.8333723,127.1202549"},{"id":"1459","title":"\uc804\uc8fc\uc2dc KT \uc678\uad00 ","address":"\uc804\ubd81 \uc804\uc8fc\uc2dc \uc644\uc0b0\uad6c \uc628\uace0\uc744\ub85c 29","latlng":"35.8333723,127.1202549"},{"id":"1458","title":"\uc804\uc8fc\uc2dc KT \uc625\uc0c1 ","address":"\uc804\ubd81 \uc804\uc8fc\uc2dc \uc644\uc0b0\uad6c \uc628\uace0\uc744\ub85c 29","latlng":"35.8333723,127.1202549"},{"id":"1457","title":"\uc804\uc8fc\uc2dc KT 4\uce35 \uc2dd\ub2f9 ","address":"\uc804\ubd81 \uc804\uc8fc\uc2dc \uc644\uc0b0\uad6c \uc628\uace0\uc744\ub85c 29","latlng":"35.8333723,127.1202549"},{"id":"1456","title":"\uc804\uc8fc\uc2dc KT 4\uce35 \ubcf5\ub3c4 ","address":"\uc804\ubd81 \uc804\uc8fc\uc2dc \uc644\uc0b0\uad6c \uc628\uace0\uc744\ub85c 29","latlng":"35.8333723,127.1202549"},{"id":"1455","title":"\uc804\uc8fc\uc2dc KT 3\uce35 \ud734\uac8c\uc2e4 ","address":"\uc804\ubd81 \uc804\uc8fc\uc2dc \uc644\uc0b0\uad6c \uc628\uace0\uc744\ub85c 29","latlng":"35.8333723,127.1202549"},{"id":"1454","title":"\uc804\uc8fc\uc2dc KT 3\uce35 \uc911\ud68c\uc758\uc2e4 ","address":"\uc804\ubd81 \uc804\uc8fc\uc2dc \uc644\uc0b0\uad6c \uc628\uace0\uc744\ub85c 29","latlng":"35.8333723,127.1202549"},{"id":"1453","title":"\uc804\uc8fc\uc2dc KT 3\uce35 \ubcf5\ub3c4 ","address":"\uc804\ubd81 \uc804\uc8fc\uc2dc \uc644\uc0b0\uad6c \uc628\uace0\uc744\ub85c 29","latlng":"35.8333723,127.1202549"},{"id":"1451","title":"\uae40\uc81c\uc2dc \uacc4\ub8e1\ucd95\uc0b0 \ud604)\uc601\ub18d\uc870\ud569\ubc95\uc778\uacc4\ub8e1\ucd95\uc0b0","address":"\uc804\ubd81 \uae40\uc81c\uc2dc \uc9c4\ubd09\uba74 \uc815\ub2f9\uae38 65","latlng":"35.8469507,126.8115267"},{"id":"1450","title":"\uc804\uc8fc\uc2dc \ub300\ud55c\ud1b5\uc6b4 \ucc28\uace0\uc9c0 \ubc0f \ubd84\ub958\uc791\uc5c5\ub300 ","address":"\uc804\ub77c\ubd81\ub3c4 \uc804\uc8fc\uc2dc \ub355\uc9c4\uad6c \ud314\ubcf5\ub3d93\uac00 400","latlng":"35.8542410,127.0880182"},{"id":"1449","title":"\uc804\uc8fc\uc2dc \ub300\ud55c\ud1b5\uc6b4 \ucc3d\uace0  ","address":"\uc804\ub77c\ubd81\ub3c4 \uc804\uc8fc\uc2dc \ub355\uc9c4\uad6c \ud314\ubcf5\ub3d93\uac00 400","latlng":"35.8542410,127.0880182"},{"id":"1448","title":"\uc804\uc8fc\uc2dc \uc131\ud654\uc720\ub9ac\uacf5\uc7a5 \uc55e \uacf5\ud130 ","address":"\uc804\ubd81 \uc804\uc8fc\uc2dc \ub355\uc9c4\uad6c \uc2e0\ubcf5\ucc9c\ubcc0\ub85c 17","latlng":"35.8566473,127.1034573"},{"id":"1446","title":"\uc804\uc8fc\uc2dc \uc554\uc6e8\uc774(\uc554\uc6e8\uc774 \ud50c\ub77c\uc790) ","address":"\uc804\ubd81 \uc804\uc8fc\uc2dc \ub355\uc9c4\uad6c \ud314\ubcf5\ub85c 173","latlng":"35.8543432,127.0876601"},{"id":"1445","title":"\uc804\uc8fc\uc2dc \uc804\uc8fc\uc2dc\uc790\uc6d0\ubd09\uc0ac\uc13c\ud130 \uc678\ubd80 ","address":"\uc804\ubd81 \uc804\uc8fc\uc2dc \ub355\uc9c4\uad6c \uc804\uc8fc\ucc9c\ub3d9\ub85c 455-1","latlng":"35.8337923,127.1264402"},{"id":"1443","title":"\uc804\uc8fc\uc2dc \uc804\uc8fc\uc2dc\uc790\uc6d0\ubd09\uc0ac\uc13c\ud130 \ub0b4\ubd80 ","address":"\uc804\ubd81 \uc804\uc8fc\uc2dc \ub355\uc9c4\uad6c \uc804\uc8fc\ucc9c\ub3d9\ub85c 455-1","latlng":"35.8337923,127.1264402"},{"id":"1441","title":"\uace0\ucc3d\uad70 \ud3d0 \ubaa8\ud154 ","address":"\uc804\ub77c\ubd81\ub3c4 \uace0\ucc3d\uad70 \uace0\ucc3d\uc74d \uc6d4\uc0b0\ub9ac 571","latlng":"35.4141151,126.7239992"},{"id":"1440","title":"\uc804\uc8fc\uc2dc \ud638\ubc18\ucd0c \uc8fc\ud0dd ","address":"\uc804\ub77c\ubd81\ub3c4 \uc804\uc8fc\uc2dc \ub355\uc9c4\uad6c \ub355\uc9c4\ub3d92\uac00 168-48","latlng":"35.8500169,127.1183434"},{"id":"1439","title":"\uc804\uc8fc\uc2dc \uc5f0\ud654\ub9c8\uc744 \uc8fc\ud0dd ","address":"\uc804\ub77c\ubd81\ub3c4 \uc804\uc8fc\uc2dc \ub355\uc9c4\uad6c \ub355\uc9c4\ub3d91\uac00 653-3","latlng":"35.8528584,127.1311326"},{"id":"1438","title":"\uc644\uc8fc\uad70 \uace0\uc0b0\ucc9c \uc778\ub3c4\uad50 ","address":"\uc804\ub77c\ubd81\ub3c4 \uc644\uc8fc\uad70 \uc6a9\uc9c4\uc74d \uc2e0\uc9c0\ub9ac 224-1","latlng":"35.9384643,127.1719507"},{"id":"1437","title":"\uc804\uc8fc\uc2dc \uc804\ubd81\uccb4\uc2e0\uccad,\uc804\uc8fc\uc6b0\uccb4\uad6d-\uc911\ud68c\uc758\uc2e4 ","address":"\uc804\ubd81 \uc804\uc8fc\uc2dc \uc644\uc0b0\uad6c \uc11c\uc6d0\ub85c 99 \uc804\uc8fc\uc6b0\uccb4\uad6d","latlng":"35.8145679,127.1055053"},{"id":"1436","title":"\uc804\uc8fc\uc2dc \uc804\ubd81\uccb4\uc2e0\uccad,\uc804\uc8fc\uc6b0\uccb4\uad6d-\uc678\uad00 ","address":"\uc804\ubd81 \uc804\uc8fc\uc2dc \uc644\uc0b0\uad6c \uc11c\uc6d0\ub85c 99 \uc804\uc8fc\uc6b0\uccb4\uad6d","latlng":"35.8145679,127.1055053"},{"id":"1435","title":"\uc804\uc8fc\uc2dc \uc804\ubd81\uccb4\uc2e0\uccad,\uc804\uc8fc\uc6b0\uccb4\uad6d-\uc625\uc0c1 ","address":"\uc804\ubd81 \uc804\uc8fc\uc2dc \uc644\uc0b0\uad6c \uc11c\uc6d0\ub85c 99 \uc804\uc8fc\uc6b0\uccb4\uad6d","latlng":"35.8145679,127.1055053"},{"id":"1434","title":"\uc804\uc8fc\uc2dc \uc804\ubd81\uccb4\uc2e0\uccad,\uc804\uc8fc\uc6b0\uccb4\uad6d-\uc18c\ud68c\uc758\uc2e4 ","address":"\uc804\ubd81 \uc804\uc8fc\uc2dc \uc644\uc0b0\uad6c \uc11c\uc6d0\ub85c 99 \uc804\uc8fc\uc6b0\uccb4\uad6d","latlng":"35.8145679,127.1055053"},{"id":"1433","title":"\uc804\uc8fc\uc2dc-\uc804\ubd81\uccb4\uc2e0\uccad,\uc804\uc8fc\uc6b0\uccb4\uad6d-10\uce35 \ud734\uac8c\uc2e4 ","address":"\uc804\ubd81 \uc804\uc8fc\uc2dc \uc644\uc0b0\uad6c \uc11c\uc6d0\ub85c 99 \uc804\uc8fc\uc6b0\uccb4\uad6d","latlng":"35.8145679,127.1055053"},{"id":"1432","title":"\uc804\uc8fc\uc2dc \uc804\ubd81\uccb4\uc2e0\uccad,\uc804\uc8fc\uc6b0\uccb4\uad6d-10\uce35 \uc885\ud569\uac15\uc758\uc2e4 ","address":"\uc804\ubd81 \uc804\uc8fc\uc2dc \uc644\uc0b0\uad6c \uc11c\uc6d0\ub85c 99 \uc804\uc8fc\uc6b0\uccb4\uad6d","latlng":"35.8145679,127.1055053"},{"id":"1431","title":"\uc804\uc8fc\uc2dc \uc804\ubd81\uccb4\uc2e0\uccad,\uc804\uc8fc\uc6b0\uccb4\uad6d-10\uce35 \uc57c\uc678\ud734\uac8c\uc2e4 ","address":"\uc804\ubd81 \uc804\uc8fc\uc2dc \uc644\uc0b0\uad6c \uc11c\uc6d0\ub85c 99 \uc804\uc8fc\uc6b0\uccb4\uad6d","latlng":"35.8145679,127.1055053"},{"id":"1430","title":"\uc804\uc8fc\uc2dc \uc804\ubd81\uccb4\uc2e0\uccad,\uc804\uc8fc\uc6b0\uccb4\uad6d-10\uce35 \ubcf5\ub3c4 ","address":"\uc804\ubd81 \uc804\uc8fc\uc2dc \uc644\uc0b0\uad6c \uc11c\uc6d0\ub85c 99 \uc804\uc8fc\uc6b0\uccb4\uad6d","latlng":"35.8145679,127.1055053"},{"id":"1429","title":"\uc804\uc8fc\uc2dc \uc804\ubd81\uccb4\uc2e0\uccad,\uc804\uc8fc\uc6b0\uccb4\uad6d-3\uce35 \ud734\uac8c\uc2e4 ","address":"\uc804\ubd81 \uc804\uc8fc\uc2dc \uc644\uc0b0\uad6c \uc11c\uc6d0\ub85c 99 \uc804\uc8fc\uc6b0\uccb4\uad6d","latlng":"35.8145679,127.1055053"},{"id":"1428","title":"\uc804\uc8fc\uc2dc \uc804\ubd81\uccb4\uc2e0\uccad,\uc804\uc8fc\uc6b0\uccb4\uad6d-3\uce35 \ud5ec\uc2a4\uc7a5 ","address":"\uc804\ubd81 \uc804\uc8fc\uc2dc \uc644\uc0b0\uad6c \uc11c\uc6d0\ub85c 99 \uc804\uc8fc\uc6b0\uccb4\uad6d","latlng":"35.8145679,127.1055053"},{"id":"1427","title":"\uc804\uc8fc\uc2dc \uc804\ubd81\uccb4\uc2e0\uccad,\uc804\uc8fc\uc6b0\uccb4\uad6d-3\uce35 \uc2dd\ub2f9 ","address":"\uc804\ubd81 \uc804\uc8fc\uc2dc \uc644\uc0b0\uad6c \uc11c\uc6d0\ub85c 99 \uc804\uc8fc\uc6b0\uccb4\uad6d","latlng":"35.8145679,127.1055053"},{"id":"1426","title":"\uc804\uc8fc\uc2dc \uc804\ubd81\uccb4\uc2e0\uccad,\uc804\uc8fc\uc6b0\uccb4\uad6d-3\uce35 \ub300\ud68c\uc758\uc2e4 ","address":"\uc804\ubd81 \uc804\uc8fc\uc2dc \uc644\uc0b0\uad6c \uc11c\uc6d0\ub85c 99 \uc804\uc8fc\uc6b0\uccb4\uad6d","latlng":"35.8145679,127.1055053"},{"id":"1425","title":"\uc804\uc8fc\uc2dc \uc804\ubd81\uccb4\uc2e0\uccad,\uc804\uc8fc\uc6b0\uccb4\uad6d-2\uce35 \uc57c\uc678 ","address":"\uc804\ubd81 \uc804\uc8fc\uc2dc \uc644\uc0b0\uad6c \uc11c\uc6d0\ub85c 99 \uc804\uc8fc\uc6b0\uccb4\uad6d","latlng":"35.8145679,127.1055053"},{"id":"1424","title":"\uc804\uc8fc\uc2dc \uc804\ubd81\uccb4\uc2e0\uccad,\uc804\uc8fc\uc6b0\uccb4\uad6d-2\uce35 \ubcf5\ub3c4 ","address":"\uc804\ubd81 \uc804\uc8fc\uc2dc \uc644\uc0b0\uad6c \uc11c\uc6d0\ub85c 99 \uc804\uc8fc\uc6b0\uccb4\uad6d","latlng":"35.8145679,127.1055053"},{"id":"1423","title":"\uc804\uc8fc\uc2dc \uc804\ubd81\uccb4\uc2e0\uccad,\uc804\uc8fc\uc6b0\uccb4\uad6d-1\uce35 \uc6b0\uccb4\uad6d ","address":"\uc804\ubd81 \uc804\uc8fc\uc2dc \ub355\uc9c4\uad6c \ubc31\uc81c\ub300\ub85c 566 \uc804\ubd81\uc740\ud589\ube4c\ub529\uc9c0\ubc88\uc804\ubd81 \uc804\uc8fc\uc2dc \ub355\uc9c4\uad6c \uae08\uc554\ub3d9 669-2 \uc804\ubd81\uc740\ud589\ube4c\ub529 1\uce35","latlng":"35.8399404,127.1319375"},{"id":"1422","title":"\uc804\uc8fc\uc2dc \uc804\ubd81\uccb4\uc2e0\uccad,\uc804\uc8fc\uc6b0\uccb4\uad6d 1\uce35\ub85c\ube44 ","address":"\uc804\ubd81 \uc804\uc8fc\uc2dc \uc644\uc0b0\uad6c \uc11c\uc6d0\ub85c 99 \uc804\uc8fc\uc6b0\uccb4\uad6d","latlng":"35.8145679,127.1055053"},{"id":"1421","title":"\uc804\uc8fc\uc2dc \uc804\uc8fc\uc2dc\uad50\uc6d0\uacf5\uc81c\ud68c\uad00 \uc625\uc0c1 ","address":"\uc804\ubd81 \uc804\uc8fc\uc2dc \uc644\uc0b0\uad6c \uc628\uace0\uc744\ub85c 1","latlng":"35.8333081,127.1221280"},{"id":"1420","title":"\uc804\uc8fc\uc2dc \ub0a9\uc791\ud55c \uc2ac\ub9ac\ud37c ","address":"\uc804\ubd81 \uc804\uc8fc\uc2dc \uc644\uc0b0\uad6c \uc804\uc8fc\uac1d\uc0ac2\uae38 24\uc9c0\ubc88\uc804\ubd81 \uc804\uc8fc\uc2dc \uc644\uc0b0\uad6c \uace0\uc0ac\ub3d9 455-2","latlng":"35.8179606,127.1409618"},{"id":"1419","title":"\uc804\uc8fc\uc2dc \ubb34\uad81\ud654\ud55c\uc815\uc2dd ","address":"\uc804\ubd81 \uc804\uc8fc\uc2dc \ub355\uc9c4\uad6c \uad8c\uc0bc\ub4dd\ub85c 436","latlng":"35.8500623,127.1171616"},{"id":"1417","title":"\uc804\uc8fc\uc2dc \uaf2c\uaf2c\uc601\uc591\ud1b5\ub2ed ","address":"\uc804\ubd81 \uc804\uc8fc\uc2dc \uc644\uc0b0\uad6c \uacbd\uae30\uc804\uae38 38-10\uc9c0\ubc88\uc804\ubd81 \uc804\uc8fc\uc2dc \uc644\uc0b0\uad6c \uacbd\uc6d0\ub3d92\uac00 53-5","latlng":"35.8176877,127.1498595"},{"id":"1413","title":"\uc804\uc8fc\uc2dc \ud55c\uc9c0\uc0b0\uc5c5\uc9c0\uc6d0\uc13c\ud130(4\uce35\uc138\ubbf8\ub098\uc2e4) ","address":"\uc804\ubd81 \uc804\uc8fc\uc2dc \uc644\uc0b0\uad6c \ud604\ubb341\uae38 20 \ud55c\uc9c0\uc0b0\uc5c5\uc9c0\uc6d0\uc13c\ud130","latlng":"35.8205672,127.1482271"},{"id":"1412","title":"\uc804\uc8fc\uc2dc \uc250\ub974\ube4c\ubaa8\ud154 ","address":"\uc804\ubd81 \uc804\uc8fc\uc2dc \ub355\uc9c4\uad6c \uc544\uc9114\uae38 9","latlng":"35.8305011,127.1743222"},{"id":"1410","title":"\ubd80\uc548\uad70 \uc2e0\uc7ac\uc0dd\uc5d0\ub108\uc9c0\ud14c\ub9c8\ud30c\ud06c ","address":"\uc804\ubd81 \ubd80\uc548\uad70 \ud558\uc11c\uba74 \uc2e0\uc7ac\uc0dd\uc5d0\ub108\uc9c0\ub85c 10","latlng":"35.7104111,126.5977487"},{"id":"1408","title":"\uc804\uc8fc\uc2dc \uc804\uc8fc\ub3d9\ubb3c\uc6d0(\ubc9a\uaf43\ucd95\uc81c) ","address":"\uc804\ubd81 \uc804\uc8fc\uc2dc \ub355\uc9c4\uad6c \uc18c\ub9ac\ub85c 68 \uc804\uc8fc\ub3d9\ubb3c\uc6d0","latlng":"35.8551190,127.1443080"},{"id":"1406","title":"\ubd80\uc548\uad70-\uc591\uc9c0\ud56d ","address":"\uc804\ub77c\ubd81\ub3c4 \ubd80\uc548\uad70 \uacc4\ud654\uba74 \uacc4\ud654\ub9ac \uc0b03-1","latlng":"35.7943677,126.6420718"},{"id":"1404","title":"\uae40\uc81c\uc2dc-\ub9cc\uacbd\ubc84\uc2a4\ud130\ubbf8\ub110 ","address":"\uc804\ub77c\ubd81\ub3c4 \uae40\uc81c\uc2dc \ub9cc\uacbd\uc74d \ub9cc\uacbd\ub85c 813","latlng":"35.8527205,126.8162046"},{"id":"1403","title":"\ubd80\uc548\uad70-\uc554\uac70 ","address":"\uc804\ub77c\ubd81\ub3c4 \ubd80\uc548\uad70 \ubd80\uc548\uc74d \uc639\uc911\ub9ac 812-1","latlng":"35.6993068,126.7519914"},{"id":"1402","title":"\uc784\uc2e4\uad70-\uc120\uac70\uad50(\uc12c\uc9c4\uac15) ","address":"\uc804\ubd81 \uc784\uc2e4\uad70 \uc6b4\uc554\uba74 \ud559\uc554\ub9ac","latlng":"35.6083000,127.2074000"},{"id":"1401","title":"\uae40\uc81c\uc2dc-\ub9cc\uacbd\ub300\uad50 ","address":"\uc804\ubd81 \uad70\uc0b0\uc2dc \ub300\uc57c\uba74 \ubcf5\uad50\ub9ac","latlng":"35.9254000,126.8279000"},{"id":"1400","title":"\uc784\uc2e4\uad70-\uc0b0\uae38(3Km\uad6c\uac04) ","address":"\uc804\ubd81 \uc9c4\uc548\uad70 \ubc31\uc6b4\uba74 \uc6b4\uad50\ub9ac","latlng":"35.7031000,127.4024000"},{"id":"1399","title":"\uae40\uc81c\uc2dc-\uc232\uae38(\ub300\uc728\uc800\uc218\uc9c0) ","address":"\uc804\ubd81 \ubd80\uc548\uad70 \ubd80\uc548\uc74d \uc9c4\uc131\uae38 22-2 1\uce35","latlng":"35.7254334,126.7391504"},{"id":"1398","title":"\uc804\uc8fc\uc2dc-\ud130\ub110(\uac70\uc0b0\ud669\uad81\uc544\ud30c\ud2b8\uc55e) ","address":"\uc804\ubd81 \uc804\uc8fc\uc2dc \ub355\uc9c4\uad6c \uc9c4\ubd81\ub3d9","latlng":"35.8279732,127.1314290"},{"id":"1397","title":"\uc804\uc8fc\uc2dc-\ud558\uac00\uc9c0\uad6c\ub3c4\ub85c ","address":"\uc804\ubd81 \uc804\uc8fc\uc2dc \ub355\uc9c4\uad6c \uac00\ub9ac\ub0b48\uae38 19","latlng":"35.8433296,127.1097115"},{"id":"1396","title":"\ubd80\uc548\uad70-\ubd80\uc548\ub3d9\ucd08\ub4f1\ud559\uad50 \ub3c4\ub85c ","address":"\uc804\ubd81 \ubd80\uc548\uad70 \ubd80\uc548\uc74d \uc120\uc740\ub9ac 22-1","latlng":"35.7271224,126.7398883"},{"id":"1395","title":"\ubd80\uc548\uad70-\ubd80\uc548\uacf5\uc124\uc6b4\ub3d9\uc7a5\ub3c4\ub85c ","address":"\uc804\ubd81 \ubd80\uc548\uad70 \ud589\uc548\uba74 \uc9c4\ub3d9\ub9ac 1130","latlng":"35.7023503,126.7221453"},{"id":"1394","title":"\ubd80\uc548\uad70-\uacc4\ud654\uc74d\ub0b4\ub3c4\ub85c ","address":"\uc804\ub77c\ubd81\ub3c4 \ubd80\uc548\uad70 \uacc4\ud654\uba74 \ucc3d\ubd81\ub9ac 472","latlng":"35.7614554,126.6977953"},{"id":"1393","title":"\uae40\uc81c\uc2dc-\uae40\uc81c\uc628\ucc9c\ub3c4\ub85c ","address":"\uc804\ub77c\ubd81\ub3c4 \uae40\uc81c\uc2dc \uc0c1\ub3d9\ub3d9 474-3","latlng":"35.8315449,126.9263120"},{"id":"1391","title":"\uc644\uc8fc\uad70- \ud558\uc774\ud2b8\uacf5\uc7a5 \ub0b4 \ud558\uc774\ud2b8\ud53c\uc544 ","address":"\uc804\ubd81 \uc644\uc8fc\uad70 \uc6a9\uc9c4\uc74d \uc2e0\uc9c0\uc1a1\uad11\ub85c 25-33","latlng":"35.9186488,127.1763348"},{"id":"1388","title":"\uc644\uc8fc\uad70- \ud558\uc774\ud2b8\uacf5\uc7a5 \uc804\uc8fc\uc9c0\uc810 \uc678\uad00 ","address":"\uc804\ubd81 \uc644\uc8fc\uad70 \uc6a9\uc9c4\uc74d \uc2e0\uc9c0\uc1a1\uad11\ub85c 25-33","latlng":"35.9186488,127.1763348"},{"id":"1387","title":"\uc804\uc8fc\uc2dc-\uc9c4\ubd81\ucd08\ub4f1\ud559\uad50 \ub4b7\uae38 ","address":"\uc804\ubd81 \uc804\uc8fc\uc2dc \ub355\uc9c4\uad6c \uc9c4\ubd811\uae38 17-32","latlng":"35.8265832,127.1316736"},{"id":"1386","title":"\uae40\uc81c\uc2dc-\ubd80\uc601\uc2e4\ubc84\ud0c0\uc6b4 ","address":"\uc804\ubd81 \uae40\uc81c\uc2dc \ud558\ub3d91\uae38 79-1","latlng":"35.8142876,126.8957768"},{"id":"1385","title":"\uc644\uc8fc\uad70-\uc6a9\uc5f0\uad50\uc778\uadfc\uc8fc\ud0dd ","address":"\uc804\ub77c\ubd81\ub3c4 \uc644\uc8fc\uad70 \ub3d9\uc0c1\uba74 \uc2e0\uc6d4\ub9ac 723","latlng":"35.9554375,127.3110054"},{"id":"1384","title":"\uc804\uc8fc\uc2dc \ub0a1\uc740 \uc8fc\ud0dd ","address":"\uc804\ub77c\ubd81\ub3c4 \uc804\uc8fc\uc2dc \uc644\uc0b0\uad6c \uc0bc\ucc9c\ub3d91\uac00 \uc0b092-1","latlng":"35.7995449,127.1323703"},{"id":"1383","title":"\uc804\uc8fc\uc2dc-C&L\uc6e8\ub529(\uc368\ub4dc\ub9c8\uc778\ub4dc) ","address":"\uc804\ub77c\ubd81\ub3c4 \uc804\uc8fc\uc2dc \uc644\uc0b0\uad6c \uc911\uc559\ub3d92\uac00 48-1","latlng":"35.8162240,127.1433878"},{"id":"1379","title":"\uc9c4\uc548\uad70-\uc9c4\uc548\uacf5\uc124\uc6b4\ub3d9\uc7a5 \uc8fc\ucc28\uc7a5 ","address":"\uc804\ubd81 \uc9c4\uc548\uad70 \uc9c4\uc548\uc74d \uad70\ud558\ub9ac","latlng":"35.7859000,127.4186000"},{"id":"1378","title":"\ubd80\uc548\uad70-\ubd80\uc548\uad6d\ubbfc\uccb4\uc721\uc13c\ud130 ","address":"\uc804\ubd81 \ubd80\uc548\uad70 \ubd80\uc548\uc74d \uc11d\uc815\ub85c 165","latlng":"35.7309335,126.7371950"},{"id":"1377","title":"\uae40\uc81c\uc2dc \uc9c0\ud3c9\uc120\ub9c8\ub9b0\ub9ac\uc870\ud2b8 ","address":"\uc804\ubd81 \uae40\uc81c\uc2dc \ub9cc\uacbd\uc74d \ub9cc\uacbd\ub9ac 100","latlng":"35.8518281,126.8236865"},{"id":"1375","title":"\uc804\uc8fc\uc2dc-\uc804\uc8fc\uc9c0\ubc29\ubc95\uc6d0 \uc678\uad00 ","address":"\uc804\ubd81 \uc804\uc8fc\uc2dc \ub355\uc9c4\uad6c \uc0ac\ud3c9\ub85c 25","latlng":"35.8414361,127.1187314"},{"id":"1374","title":"\uc804\uc8fc\uc2dc-\uc804\uc8fc\uc9c0\ubc29\ubc95\uc6d0 \ubcf5\ub3c4 ","address":"\uc804\ubd81 \uc804\uc8fc\uc2dc \ub355\uc9c4\uad6c \uc0ac\ud3c9\ub85c 25","latlng":"35.8414361,127.1187314"},{"id":"1373","title":"\uc804\uc8fc\uc2dc-\uc804\uc8fc\uc9c0\ubc29\ubc95\uc6d0 3\ud638 \ubc95\uc815 ","address":"\uc804\ubd81 \uc804\uc8fc\uc2dc \ub355\uc9c4\uad6c \uc0ac\ud3c9\ub85c 25","latlng":"35.8414361,127.1187314"},{"id":"1371","title":"\uc804\uc8fc\uc2dc \uc804\uc8fc\ub300\ud559\uad50 \uc2a4\ud0c0\uc13c\ud130 \ub3c4\uc11c\uad00 \uc678\ubd80 ","address":"\uc804\ubd81 \uc804\uc8fc\uc2dc \uc644\uc0b0\uad6c \ud6a8\uc790\ub3d93\uac00 1080-1","latlng":"35.8189413,127.0884728"},{"id":"1368","title":"\uc804\uc8fc\uc2dc \uc804\uc8fc\ub300\ud559\uad50 \uc2a4\ud0c0\uc13c\ud130 \ub3c4\uc11c\uad00 \ub0b4\ubd80 ","address":"\uc804\ubd81 \uc804\uc8fc\uc2dc \uc644\uc0b0\uad6c \ud6a8\uc790\ub3d93\uac00 1080-1","latlng":"35.8189413,127.0884728"},{"id":"1367","title":"\uc644\uc8fc\uad70 \ub3d9\uc0c1\ucd08\ub4f1\ud559\uad50 ","address":"\uc804\ubd81 \uc644\uc8fc\uad70 \ub3d9\uc0c1\uba74 \ub300\uc544\uc800\uc218\ub85c 1525","latlng":"35.9577430,127.2938500"},{"id":"1366","title":"\uc775\uc0b0\uc2dc-\uc6c5\ud3ec\uad00\uad11\uc9c0(\uacf0\uac1c\ub098\ub8e8\ud130) ","address":"\uc804\ubd81 \uc775\uc0b0\uc2dc \uc6c5\ud3ec\uba74 \uac15\ubcc0\ub85c 25 \uacf0\uac1c\ub098\ub8e8\uacf5\uc6d0","latlng":"36.0658096,126.8754389"},{"id":"1365","title":"\uc775\uc0b0\uc2dc-\ub298\ud478\ub978\uc218\ubaa9\uc6d0(\uc655\uad81\ub2e4\uc6d0) ","address":"\uc804\ubd81 \uc775\uc0b0\uc2dc \uc655\uad81\uba74 \uc0ac\uace1\uae38 21-5","latlng":"35.9821285,127.0938078"},{"id":"1364","title":"\uad70\uc0b0\uc2dc-\uc740\ud30c\uc720\uc6d0\uc9c0 (\uc778\uadfc) ","address":"\uc804\ubd81 \uad70\uc0b0\uc2dc \uc740\ud30c\uc21c\ud658\uae38 84","latlng":"35.9505419,126.6924397"},{"id":"1363","title":"\uc804\uc8fc\uc2dc \uc804\uc8fc\ub9c8\uc804\uace0\ubd84\uacf5\uc6d0 ","address":"\uc804\ub77c\ubd81\ub3c4 \uc804\uc8fc\uc2dc \uc644\uc0b0\uad6c \ud669\uac15\uc11c\uc6d05\uae38 8-15","latlng":"35.8290833,127.1039107"},{"id":"1362","title":"\uc804\uc8fc\uc2dc-\uc2b5\uc9c0\uacf5\uc6d0(\uc11c\ubd80\uc2e0\uc2dc\uac00\uc9c0\ud604\ub300\uc544\uc774\ud30c\ud06c\uc606) ","address":"\uc804\ub77c\ubd81\ub3c4 \uc804\uc8fc\uc2dc \uc644\uc0b0\uad6c \ud6a8\uc790\ub3d93\uac00 1779","latlng":"35.8282515,127.1059251"},{"id":"1361","title":"\uc804\uc8fc\uc2dc-\ubc18\ub527\ubd88\uc774\uacf5\uc6d0(\ud558\uac00\uc9c0\uad6c) ","address":"\uc804\ubd81 \uc804\uc8fc\uc2dc \ub355\uc9c4\uad6c \ub355\uc9c4\ub3d92\uac00","latlng":"35.8456000,127.1130000"},{"id":"1360","title":"\uc804\uc8fc\uc2dc-\ub2ec\ud33d\uc774\uacf5\uc6d0(\ud558\uac00\uc9c0\uad6c) ","address":"\uc804\ubd81 \uc804\uc8fc\uc2dc \ub355\uc9c4\uad6c \ud558\uac00\ub85c 27","latlng":"35.8445496,127.1115310"},{"id":"1359","title":"\uc804\uc8fc\uc2dc \ud558\uac00\uc9c0\uad6c \uacf5\uc6d0 ","address":"\uc804\ubd81 \uc804\uc8fc\uc2dc \ub355\uc9c4\uad6c \uacbd\ub3d9\ub85c 11","latlng":"35.8437074,127.1069297"},{"id":"1358","title":"\uc804\uc8fc\uc2dc \ud55c\uad6d\uc815\uad50\ud68c \uc131\ubaa8\uc548\uc2dd\uc131\ub2f9 ","address":"\uc804\ubd81 \uc804\uc8fc\uc2dc \uc644\uc0b0\uad6c \ucc9c\uc7a0\ub85c 13\uc9c0\ubc88\uc804\ubd81 \uc804\uc8fc\uc2dc \uc644\uc0b0\uad6c \uc0bc\ucc9c\ub3d92\uac00 273","latlng":"35.7918334,127.1096377"},{"id":"1357","title":"\uc804\uc8fc\uc2dc \ud55c\uad6d\uc18c\ub9ac\ubb38\ud654\uc758\uc804\ub2f9(\uc804\uc2dc\uc7a5) ","address":"\uc804\ubd81 \uc804\uc8fc\uc2dc \ub355\uc9c4\uad6c \uc18c\ub9ac\ub85c 31 \uc18c\ub9ac\ubb38\ud654\uc804\ub2f9","latlng":"35.8552788,127.1376777"},{"id":"1354","title":"\uc804\uc8fc\uc2dc \uc0c1\ub9bc\ub3d9\ud601\uc2e0\ub3c4\uc2dc\ubd80\uc9c0(\uaca8\uc6b8) ","address":"\uc804\ubd81 \uc804\uc8fc\uc2dc \ub355\uc9c4\uad6c \uc815\uc5ec\ub9bd\ub85c 1018\uc9c0\ubc88\uc804\ubd81 \uc804\uc8fc\uc2dc \ub355\uc9c4\uad6c \ub9cc\uc131\ub3d9 173-1","latlng":"35.8402186,127.0804594"},{"id":"1353","title":"\uc9c4\uc548\uad70 \uaf43\uc794\ub514\ub3d9\uc0b0 ","address":"\uc804\ubd81 \uc9c4\uc548\uad70 \uc9c4\uc548\uc74d \uc5f0\uc7a5\ub9ac \uc0b023-1","latlng":"35.7814088,127.3970000"},{"id":"1352","title":"\uc804\uc8fc\uc2dc \ubc31\uc11d\uc800\uc218\uc9c0 ","address":"\uc804\ubd81 \uc804\uc8fc\uc2dc \ub355\uc9c4\uad6c \uc804\ubbf8\ub3d91\uac00","latlng":"35.8904000,127.1240000"},{"id":"1351","title":"\ubd80\uc548\uad70 \uacc4\ud654\uad50 \uc778\uadfc(\uac08\ub300) ","address":"\uc804\ubd81 \ubd80\uc548\uad70 \uacc4\ud654\uba74 \uacc4\ud654\ub85c 470","latlng":"35.7845956,126.6382271"},{"id":"1350","title":"\uc9c4\uc548\uad70 \uc8fc\uc790\ucc9c\ubcc0\uacf5\ud130 ","address":"\uc804\ubd81 \uc9c4\uc548\uad70 \uc8fc\ucc9c\uba74 \ub3d9\uc0c1\uc8fc\ucc9c\ub85c 1800","latlng":"35.9797402,127.3968625"},{"id":"1349","title":"\uc775\uc0b0\uc2dc- \ub300\ub098\ubb34 \uc232 \uc606 \uad6c\ub8e1\ub9c8\uc744(\uad6c\ub8e1\ub9c8\uc744 \ub300\ub098\ubb34\uc232) ","address":"\uc804\ub77c\ubd81\ub3c4 \uc775\uc0b0\uc2dc \uae08\ub9c8\uba74 \uad6c\ub8e1\uae38 107","latlng":"36.0144730,127.0455045"},{"id":"1347","title":"\uc804\uc8fc\uc2dc \uc804\uc8fc\ub3d9\ud5cc(\uc804\ud1b5\ubb38\ud654\uc5f0\uc218\uc6d0) ","address":"\uc804\ubd81 \uc804\uc8fc\uc2dc \uc644\uc0b0\uad6c \ud5a5\uad50\uae38 119-6 \uc804\uc8fc\ub3d9\ud5cc","latlng":"35.8126605,127.1566452"},{"id":"1344","title":"\uc804\uc8fc\uc2dc \uc644\uc0b0\ub3d9 \ubc29\uacf5\ud638 ","address":"\uc804\ubd81 \uc804\uc8fc\uc2dc \uc644\uc0b0\uad6c \uc678\uce60\ubd091\uae38 36","latlng":"35.8042583,127.1391375"},{"id":"1343","title":"\uc784\uc2e4\uad70 \uc2e0\uae30\ub9ac(\ud3d0\uac00) ","address":"\uc804\ub77c\ubd81\ub3c4 \uc784\uc2e4\uad70 \uc624\uc218\uba74 \uc2e0\uae30\ub9ac 256","latlng":"35.5119513,127.3208560"},{"id":"1341","title":"\uc644\uc8fc\uad70 \uc544\uc6d0\uace0\ud0dd ","address":"\uc804\ubd81 \uc644\uc8fc\uad70 \uc18c\uc591\uba74 \uc1a1\uad11\uc218\ub9cc\ub85c 516-7","latlng":"35.9034920,127.2446683"},{"id":"1339","title":"\uc21c\ucc3d\uad70 \uad6c\ubbf8\ub9ac(\ud55c\uc625\uc9d1) 1 ","address":"\uc804\ub77c\ubd81\ub3c4 \uc21c\ucc3d\uad70 \ub3d9\uacc4\uba74 \uadc0\ubbf81\uae38 39","latlng":"35.4456680,127.2151606"},{"id":"1338","title":"\ubd80\uc548\uad70 \uc218\uc131\ub2f9 ","address":"\uc804\ubd81 \ubd80\uc548\uad70 \ubcc0\uc0b0\uba74 \uc801\ubcbd\uac15\uae38 54 \uc218\uc131\ub2f9","latlng":"35.6346448,126.4603383"},{"id":"1337","title":"\uc804\uc8fc\uc2dc \uc804\uc8fc\uc81c\uc77c\uace0\ub4f1\ud559\uad50 \uc778\uadfc \uc5b8\ub355\uae38 ","address":"\uc804\ubd81 \uc804\uc8fc\uc2dc \uc644\uc0b0\uad6c \uad00\uc1201\uae38 49","latlng":"35.8196353,127.1568149"},{"id":"1336","title":"\uc804\uc8fc\uc2dc \uc804\uc8fc\uad50\ub3c4\uc18c~\ub2e4\uc0ac\ub791\ubcd1\uc6d0 \uac04 \ub3c4\ub85c ","address":"\uc804\ubd81 \uc804\uc8fc\uc2dc \uc644\uc0b0\uad6c \ubc31\uc81c\ub300\ub85c 74 \ub2e4\uc0ac\ub791\ubcd1\uc6d0","latlng":"35.8008774,127.1278624"},{"id":"1334","title":"\uc804\uc8fc\uc2dc \uc804\ubd81\ub300\ud559\uad50 \uad6c\uc815\ubb38 \uc55e \uac70\ub9ac ","address":"\uc804\ub77c\ubd81\ub3c4 \uc804\uc8fc\uc2dc \ub355\uc9c4\uad6c \ub355\uc9c4\ub3d91\uac00 664-2","latlng":"35.8439504,127.1273879"},{"id":"1333","title":"\uc804\uc8fc\uc2dc \uc804\ub77c\ubd81\ub3c4\uc5b4\ub9b0\uc774\ud68c\uad00~\uc804\uc8fc\ub3d9\ubb3c\uc6d0 \ub3c4\ub85c ","address":"\uc804\ub77c\ubd81\ub3c4 \uc804\uc8fc\uc2dc \ub355\uc9c4\uad6c \ub355\uc9c4\ub3d91\uac00 654-9","latlng":"35.8524417,127.1314341"},{"id":"1332","title":"\uc804\uc8fc\uc2dc \uc6a9\uba38\ub9ac\uace0\uac1c(\uc644\uc0b0\ub3d9) ","address":"\uc804\ubd81 \uc804\uc8fc\uc2dc \uc644\uc0b0\uad6c \uc11c\uc644\uc0b0\ub3d91\uac00","latlng":"35.8105000,127.1394000"},{"id":"1330","title":"\uc804\uc8fc\uc2dc \uc11c\uc2e0\ub3d9(\uac70\ub9ac) ","address":"\uc804\ubd81 \uc804\uc8fc\uc2dc \uc644\uc0b0\uad6c \uc628\uace0\uc744\ub85c 2 \ub86f\ub370\ubc31\ud654\uc810\uc804\uc8fc\uc810","latlng":"35.8345049,127.1218933"},{"id":"1329","title":"\uc804\uc8fc\uc2dc \uc11c\ubd80\uc2e0\uc2dc\uac00\uc9c0\ub300\ub85c ","address":"\uc804\ub77c\ubd81\ub3c4 \uc804\uc8fc\uc2dc \uc644\uc0b0\uad6c \ud6a8\uc790\ub3d93\uac00 1692-27","latlng":"35.8191194,127.0988992"},{"id":"1328","title":"\uc804\uc8fc\uc2dc \ubc31\uc81c\ub85c(\ub86f\ub370\ubc31\ud654\uc810 \ubd80\uadfc \ub3c4\ub85c) ","address":"\uc804\ubd81 \uc804\uc8fc\uc2dc \ub355\uc9c4\uad6c \ubc31\uc81c\ub300\ub85c 736 \uc0c8\ub9c8\uc744\uae08\uace0","latlng":"35.8453139,127.1495790"},{"id":"1327","title":"\uc804\uc8fc\uc2dc \ub86f\ub370\ubc31\ud654\uc810 \uc804\uc8fc\uc810~\uc804\uc8fc\ub355\uc9c4\uacbd\ucc30\uc11c \ub3c4\ub85c ","address":"\uc804\ubd81 \uc804\uc8fc\uc2dc \uc644\uc0b0\uad6c \uc628\uace0\uc744\ub85c 66 \ucc9c\uc218\uc885\ud569\ud06c\ub9ac\ub2c9","latlng":"35.8342100,127.1155419"},{"id":"1326","title":"\uc804\uc8fc\uc2dc \uace0\uc0ac\ub3d9 \uae30\ub9b0\uc624\ud53c\uc2a4\ud154~\uad6cF\uc0fe \uc0ac\uac70\ub9ac ","address":"\uc804\ubd81 \uc804\uc8fc\uc2dc \uc644\uc0b0\uad6c \uc804\uc8fc\uac1d\uc0ac4\uae38 44-6","latlng":"35.8196165,127.1438339"},{"id":"1325","title":"\uc644\uc8fc\uad70 \uc18c\uc591 \ubc9a\uaf43\uae38 ","address":"\uc804\ubd81 \uc644\uc8fc\uad70 \uc18c\uc591\uba74 \uc1a1\uad11\uc218\ub9cc\ub85c 37","latlng":"35.8656814,127.2477172"},{"id":"1324","title":"\uae40\uc81c\uc2dc \uae08\uc0b0\uc0acIC ","address":"\uc804\ubd81 \uae40\uc81c\uc2dc \uae08\uc0b0\uba74 \uc131\uacc4\ub9ac","latlng":"35.7280850,126.9923380"},{"id":"1323","title":"\uad70\uc0b0\uc2dc \uadf9\ub3d9\uc0ac\uac70\ub9ac ","address":"\uc804\ubd81 \uad70\uc0b0\uc2dc \uacf5\ub2e8\ub300\ub85c 448","latlng":"35.9630545,126.6929343"},{"id":"1322","title":"\uc815\uc74d\uc2dc \uc815\uc74d\uc81c3\uc0b0\uc5c5\ub2e8\uc9c0 ","address":"\uc804\ubd81 \uc815\uc74d\uc2dc \ubd81\uba74 \ud0dc\uace1\ub9ac","latlng":"35.6063000,126.9113000"},{"id":"1321","title":"\uc815\uc74d\uc2dc \uc815\uc74d\uc81c2\uc0b0\uc5c5\ub2e8\uc9c0 ","address":"\uc804\ubd81 \uc815\uc74d\uc2dc \ud558\ubd81\ub3d9","latlng":"35.5944570,126.8634880"},{"id":"1320","title":"\uc815\uc74d\uc2dc (\uc8fc)\ub9cc\uc218\uc0b0\uc5c5 ","address":"\uc804\ubd81 \uc815\uc74d\uc2dc \uace0\ubd80\uba74 \uc601\uc6d0\ub85c 172-64\uc9c0\ubc88\uc804\ubd81 \uc815\uc74d\uc2dc \uace0\ubd80\uba74 \ub9cc\uc218\ub9ac 4-23","latlng":"35.5936707,126.7997666"},{"id":"1319","title":"\uc804\uc8fc\uc2dc \uc81c\uc77c\ucd9c\ud310 ","address":"\uc804\ubd81 \uc804\uc8fc\uc2dc \ub355\uc9c4\uad6c \uc815\uc5b8\uc2e0\ub85c 80","latlng":"35.8305941,127.1625897"},{"id":"1318","title":"\uc775\uc0b0\uc2dc \ud669\ub4f1\uc11d\uc7ac\ub18d\uacf5\ub2e8\uc9c0(\ud669\ub4f1\ub18d\uacf5\ub2e8\uc9c0) ","address":"\uc804\ubd81 \uc775\uc0b0\uc2dc \ud669\ub4f1\uba74 \uc11d\uc7ac\ub2e8\uc9c0\uae38 86 \ub18d\uacf5\ub2e8\uc9c0\uc9c0\ubc88\uc804\ubd81 \uc775\uc0b0\uc2dc \ud669\ub4f1\uba74 \uc728\ucd0c\ub9ac 908 \ub18d\uacf5\ub2e8\uc9c0","latlng":"36.0238674,126.9526657"},{"id":"1317","title":"\uc775\uc0b0\uc2dc \uc775\uc0b0\uc81c1\uc0b0\uc5c5\ub2e8\uc9c0(\uc775\uc0b0\uad6d\uac00\uc0b0\uc5c5\ub2e8\uc9c0) ","address":"\uc804\ubd81 \uc775\uc0b0\uc2dc \uc11c\ub3d9\ub85c23\uae38 11","latlng":"35.9413096,126.9736476"},{"id":"1316","title":"\uc775\uc0b0\uc2dc \uc6a9\uc655\uc11d\uc7ac\ub2e8\uc9c0 ","address":"\uc804\ubd81 \uc775\uc0b0\uc2dc \ud568\uc5f4\uc74d \ud758\uc0b0\ub9ac","latlng":"36.0653171,126.9754251"},{"id":"1315","title":"\uc775\uc0b0\uc2dc \uc131\uc6d0\uac00\uc124\uc0b0\uc5c5 ","address":"\uc804\ubd81 \uc775\uc0b0\uc2dc \ud558\ub0a8\uae38 2\uc9c0\ubc88\uc804\ubd81 \uc775\uc0b0\uc2dc \ub355\uae30\ub3d9 681-71","latlng":"35.9728903,127.0322982"},{"id":"1313","title":"\uae40\uc81c\uc2dc \uae40\uc81c\uc911\uc18c\uc9c0\ubc29\uc0b0\uc5c5\ub2e8\uc9c0(\uae40\uc81c\uc21c\ub3d9\uc0b0\uc5c5\ub2e8\uc9c0) ","address":"\uc804\ubd81 \uae40\uc81c\uc2dc \uc21c\ub3d9\uc0b0\ub2e81\uae38 23","latlng":"35.8198117,126.9248652"},{"id":"1312","title":"\uae40\uc81c\uc2dc \ud669\uc0b0\ub18d\uacf5\ub2e8\uc9c0 ","address":"\uc804\ubd81 \uae40\uc81c\uc2dc \ud669\uc0b0\uba74 \uc6a9\ub9c8\ub9ac","latlng":"35.8017000,126.9631000"},{"id":"1311","title":"\uae40\uc81c\uc2dc \uc6d4\ucd0c\ub18d\uacf5\ub2e8\uc9c0 ","address":"\uc804\ubd81 \uae40\uc81c\uc2dc \uba85\ub355\ub3d9","latlng":"35.7948000,126.8438000"},{"id":"1310","title":"\uae40\uc81c\uc2dc \ubd09\ud669\ub18d\uacf5\ub2e8\uc9c0 ","address":"\uc804\ubd81 \uae40\uc81c\uc2dc \uc624\uc815\ub3d9","latlng":"35.7764000,126.9111000"},{"id":"1309","title":"\uae40\uc81c\uc2dc \ub9cc\uacbd\ub18d\uacf5\ub2e8\uc9c0 ","address":"\uc804\ubd81 \uae40\uc81c\uc2dc \ub9cc\uacbd\uc74d \ubabd\uc0b0\ub9ac","latlng":"35.8634000,126.8125000"},{"id":"1308","title":"\uae40\uc81c\uc2dc \ub300\ub3d9\ub18d\uacf5\ub2e8\uc9c0 ","address":"\uc804\ubd81 \uae40\uc81c\uc2dc \ub9cc\uacbd\uc74d \ub300\ub3d9\ub9ac","latlng":"35.8500000,126.8508000"},{"id":"1307","title":"\uad70\uc0b0\uc2dc \ud48d\uc77c\ubaa9\uc7ac ","address":"\uc804\ubd81 \uad70\uc0b0\uc2dc \uc790\uc720\ubb34\uc5ed\ub85c 139 \ud48d\uc77c\ubaa9\uc7ac","latlng":"35.9568664,126.5479731"},{"id":"1306","title":"\uad70\uc0b0\uc2dc \ud0dc\uc9c4\ubaa9\uc7ac ","address":"\uc804\ubd81 \uad70\uc0b0\uc2dc \ubb34\uc5ed\ub85c 149","latlng":"35.9586366,126.5549313"},{"id":"1305","title":"\uad70\uc0b0\uc2dc \uc0c1\uc77c\ubaa9\uc7ac ","address":"\uc804\ubd81 \uad70\uc0b0\uc2dc \ub300\uc57c\uba74 \uc8fd\uc0b0\ub9ac 872-4","latlng":"35.9515556,126.8373144"},{"id":"1304","title":"\uad70\uc0b0\uc2dc \uad70\uc0b0\uc0b0\uc5c5\ub2e8\uc9c0 ","address":"\uc804\ubd81 \uad70\uc0b0\uc2dc \uc18c\ub8e1\ub3d9","latlng":"35.9743180,126.6792750"},{"id":"1303","title":"\uad70\uc0b0\uc2dc \uad70\uc7a5\uad6d\uac00\uc0b0\uc5c5\ub2e8\uc9c0(\ub3c4\ub85c) ","address":"\uc804\ubd81 \uad70\uc0b0\uc2dc \uc18c\ub8e1\ub3d9","latlng":"35.9743180,126.6792750"},{"id":"1298","title":"\uc21c\ucc3d\uad70 \uad6c\ubbf8\ub9ac(\ud55c\uc625\uc9d1) 2 ","address":"\uc804\ubd81 \uc21c\ucc3d\uad70 \ub3d9\uacc4\uba74 \uadc0\ubbf82\uae38 9-10","latlng":"35.4446115,127.2109400"},{"id":"1296","title":"\ubd80\uc548\uad70 \ub300\ub9ac(\uc2dc\uace8\uc9d1) ","address":"\uc804\ub77c\ubd81\ub3c4 \ubd80\uc548\uad70 \uc704\ub3c4\uba74 \ub300\uc7a5\uae38 16-8","latlng":"35.5771986,126.2661827"},{"id":"1295","title":"\uae40\uc81c\uc2dc \uccad\ud558\ub9c8\uc744 ","address":"\uc804\ubd81 \uae40\uc81c\uc2dc \uccad\ud558\uba74 \ub3d9\uc9c0\uc0b03\uae38 32-7","latlng":"35.9034862,126.8512787"},{"id":"1294","title":"\uad70\uc0b0\uc2dc \uc911\ub3d9,\uae08\uc554\ub3d9(\uc8fc\ud0dd\uac00) ","address":"\uc804\ubd81 \uad70\uc0b0\uc2dc \uc8fd\uc131\ub85c 49","latlng":"35.9872225,126.7191252"},{"id":"1293","title":"\uad70\uc0b0\uc2dc \uc11c\ud765\ub0a8\ub3d9(\uc8fc\ud0dd\uac00) ","address":"\uc804\ubd81 \uad70\uc0b0\uc2dc \ud48d\ub0a8\uae38 21-4 \ud765\ub0a8\uad50\ud68c","latlng":"35.9758678,126.7168250"},{"id":"1292","title":"\uace0\ucc3d\uad70 \uc548\ud604\ub3cb\uc74c\ubcd5\ub9c8\uc744 ","address":"\uc804\ubd81 \uace0\ucc3d\uad70 \ubd80\uc548\uba74 \uc548\ud604\uae38 14","latlng":"35.5389829,126.6116608"},{"id":"1291","title":"\uace0\ucc3d\uad70 \ub3c5\uc2e4(\uc2dc\uace8\ub9c8\uc744) ","address":"\uc804\ubd81 \uace0\ucc3d\uad70 \uace0\uc218\uba74 \uc6b0\ud3c9\ub9ac","latlng":"35.4246000,126.6602000"},{"id":"1289","title":"\uc804\uc8fc\uc2dc \uc624\ub80c\uc9c0\uc6e8\ub529 ","address":"\uc804\ubd81 \uc804\uc8fc\uc2dc \uc644\uc0b0\uad6c \uc804\ub77c\uac10\uc6015\uae38 17-39","latlng":"35.8168418,127.1453220"},{"id":"1287","title":"\uc804\uc8fc\uc2dc \ud654\uc0b0\uccb4\uc721\uad00 \ube59\uc0c1\uacbd\uae30\uc7a5 ","address":"\uc804\ubd81 \uc804\uc8fc\uc2dc \uc644\uc0b0\uad6c \ubc31\uc81c\ub300\ub85c 310","latlng":"35.8209413,127.1245752"},{"id":"1284","title":"\uad70\uc0b0\uc2dc \uad70\uc0b0\uc2b9\ud654\uc6d0 ","address":"\uc804\ubd81 \uad70\uc0b0\uc2dc \uc784\ud53c\uba74 \uc11c\uc6d0\uc11d\uace1\ub85c 436-34","latlng":"35.9686927,126.8453658"},{"id":"1283","title":"\uc804\uc8fc\uc2dc \uc1a1\ucc9c\ub3d9 \ud55c\uc591\uc544\ud30c\ud2b8 ","address":"\uc804\ubd81 \uc804\uc8fc\uc2dc \ub355\uc9c4\uad6c \uac00\ub9ac\ub0b4\ub85c 550","latlng":"35.8612355,127.1129705"},{"id":"1282","title":"\uc804\uc8fc\uc2dc \uc1a1\ucc9c\ub3d9 \uc194\ub0b4\ub3d9\uc544\uc544\ud30c\ud2b8 ","address":"\uc804\ubd81 \uc804\uc8fc\uc2dc \ub355\uc9c4\uad6c \uc640\ub8e12\uae38 7","latlng":"35.8662750,127.1137455"},{"id":"1280","title":"\ubb34\uc8fc\uad70 \uc801\uc0c1\uc0b0 \uc0b0\uc815\ud638\uc218 ","address":"\uc804\ub77c\ubd81\ub3c4 \ubb34\uc8fc\uad70 \uc801\uc0c1\uba74 \uc0b0\uc131\ub85c 960","latlng":"35.9486004,127.6945957"},{"id":"1279","title":"\uc784\uc2e4\uad70 \ub355\uce58\uba74 \uc7a5\uc554\ub9ac ","address":"\uc804\ub77c\ubd81\ub3c4 \uc784\uc2e4\uad70 \ub355\uce58\uba74 \uc7a5\uc554\ub9ac","latlng":"35.4769000,127.1547000"},{"id":"1278","title":"\uad70\uc0b0\uc2dc \uacbd\uc554\ub3d9 \ucca0\uae38 ","address":"\uc804\ubd81 \uad70\uc0b0\uc2dc \uacbd\ucd0c4\uae38 14","latlng":"35.9813075,126.7362206"},{"id":"1277","title":"\ubd80\uc548\uad70 \ud30c\uc7a5\uae08\ud56d(\ud56d\uad6c) ","address":"\uc804\ubd81 \ubd80\uc548\uad70 \uc704\ub3c4\uba74 \uc9c4\ub9ac","latlng":"35.6084000,126.3052000"},{"id":"1276","title":"\ubd80\uc548\uad70 \ubaa8\ud56d ","address":"\uc804\ubd81 \ubd80\uc548\uad70 \ubcc0\uc0b0\uba74 \ubaa8\ud56d\ud574\ubcc0\uae38 73 \ubaa8\ud56d \ud574\ub098\ub8e8 \uac00\uc871\ud638\ud154","latlng":"35.5809350,126.5077849"},{"id":"1275","title":"\ubd80\uc548\uad70 \uacf0\uc18c\ud56d ","address":"\uc804\ubd81 \ubd80\uc548\uad70 \uc9c4\uc11c\uba74 \uacf0\uc18c\ub9ac","latlng":"35.5932402,126.6092864"},{"id":"1274","title":"\ubd80\uc548\uad70 \uaca9\ud3ec\ud56d ","address":"\uc804\ubd81 \ubd80\uc548\uad70 \ubcc0\uc0b0\uba74 \uaca9\ud3ec\ub9ac","latlng":"35.6288453,126.4737841"},{"id":"1273","title":"\uad70\uc0b0\uc2dc \uad70\uc0b0\ud56d \uc678\ud56d ","address":"\uc804\ubd81 \uad70\uc0b0\uc2dc \uc784\ud574\ub85c 442 \uad70\uc0b0\ud56d3\ubd80\ub450\uc9c0\ubc88\uc804\ubd81 \uad70\uc0b0\uc2dc \uc18c\ub8e1\ub3d9 1-8","latlng":"35.9701952,126.6264736"},{"id":"1271","title":"\uad70\uc0b0\uc2dc \uad70\uc0b0\ud56d \ub0b4\ud56d(\uc9c4\ud3ec\ud574\uc591\ud14c\ub9c8\uacf5\uc6d0) ","address":"\uc804\ubd81 \uad70\uc0b0\uc2dc \uc18c\ub8e1\ub3d9","latlng":"35.9743180,126.6792750"},{"id":"1270","title":"\uad70\uc0b0\uc2dc \uad70\uc0b0\uacf5\ud56d(\uc678\ubd80) ","address":"\uc804\ubd81 \uad70\uc0b0\uc2dc \uc625\uc11c\uba74 \uc0b0\ub3d9\uae38 2 \uad70\uc0b0\uacf5\ud56d","latlng":"35.9264436,126.6156054"},{"id":"1268","title":"\uc775\uc0b0\uc2dc \ub3d9\uc775\uc0b0\uc5ed(\uc804\ub77c\uc120) ","address":"\uc804\ubd81 \uc775\uc0b0\uc2dc \uc61b\ub4512\uae38 84","latlng":"35.9212632,126.9570435"},{"id":"1267","title":"\uc644\uc8fc\uad70 \uc0bc\ub840\uc5ed ","address":"\uc804\ubd81 \uc644\uc8fc\uad70 \uc0bc\ub840\uc74d \uc0bc\ub840\uc5ed\ub85c 85-32","latlng":"35.9042025,127.0662949"},{"id":"1266","title":"\ub0a8\uc6d0\uc2dc \uad6c)\ub0a8\uc6d0\uc5ed ","address":"\uc804\ub77c\ubd81\ub3c4 \ub0a8\uc6d0\uc2dc \ucda9\uc815\ub85c 71","latlng":"35.4134187,127.3829162"},{"id":"1264","title":"\uad70\uc0b0\uc2dc \uc784\ud53c\uc5ed ","address":"\uc804\ubd81 \uad70\uc0b0\uc2dc \uc784\ud53c\uba74 \uc11c\uc6d0\uc11d\uace1\ub85c 2-5","latlng":"35.9533372,126.8675442"},{"id":"1263","title":"\uad70\uc0b0\uc2dc \ub300\uc57c\uc5ed ","address":"\uc804\ubd81 \uad70\uc0b0\uc2dc \ub300\uc57c\uba74 \uc9c0\uacbd\ub9ac 699-2","latlng":"35.9447486,126.8133303"},{"id":"1262","title":"\uad70\uc0b0\uc2dc \uad70\uc0b0\uc5ed ","address":"\uc804\ubd81 \uad70\uc0b0\uc2dc \ub0b4\ud765\ub3d9 455","latlng":"36.0017918,126.7588438"},{"id":"1261","title":"\uad70\uc0b0\uc2dc \uad6c)\uad70\uc0b0\uc5ed(\uad70\uc0b0\ud654\ubb3c\uc5ed) ","address":"\uc804\ubd81 \uad70\uc0b0\uc2dc \uad6c\uc5543.1\ub85c 13-1\uc9c0\ubc88\uc804\ubd81 \uad70\uc0b0\uc2dc \ub300\uba85\ub3d9 138-3 (\uad6c)\uc5ed\uc804\uc885\ud569\uc2dc\uc7a5\ub0b4","latlng":"35.9807234,126.7209442"},{"id":"1260","title":"\uc9c4\uc548\uad70 \uc9c4\uc548\uc2dc\uc678\ubc84\uc2a4\uacf5\uc6a9\ud130\ubbf8\ub110 ","address":"\uc804\ubd81 \uc9c4\uc548\uad70 \uc9c4\uc548\uc74d \uc9c4\ubb34\ub85c 1120 \uc9c4\uc548\uc2dc\uc678\ubc84\uc2a4\uacf5\uc6a9\uc815\ub958\uc18c\uc9c0\ubc88\uc804\ubd81 \uc9c4\uc548\uad70 \uc9c4\uc548\uc74d \uad70\uc0c1\ub9ac 403-19","latlng":"35.7921067,127.4309628"},{"id":"1259","title":"\uc815\uc74d\uc2dc \uc815\uc74d\uc2dc\uc678\ubc84\uc2a4\ud130\ubbf8\ub110 ","address":"\uc804\ubd81 \uc815\uc74d\uc2dc \uc5f0\uc9c0\ub3d9 312-12","latlng":"35.5726423,126.8451773"},{"id":"1257","title":"\uc804\uc8fc\uc2dc \uc804\uc8fc\uc2dc\uc678\ubc84\uc2a4\ud130\ubbf8\ub110 ","address":"\uc804\ubd81 \uc804\uc8fc\uc2dc \ub355\uc9c4\uad6c \uac00\ub9ac\ub0b4\ub85c 30 \uc804\uc8fc\uc2dc\uc678\ubc84\uc2a4\uacf5\uc6a9\ubbf8\ub110","latlng":"35.8344557,127.1325662"},{"id":"1256","title":"\uc804\uc8fc\uc2dc \uc804\uc8fc\uace0\uc18d\ubc84\uc2a4\ud130\ubbf8\ub110 ","address":"\uc804\ubd81 \uc804\uc8fc\uc2dc \ub355\uc9c4\uad6c \uac00\ub9ac\ub0b4\ub85c 70 \uc804\uc8fc\uace0\uc18d\ubc84\uc2a4\ud130\ubbf8\ub110","latlng":"35.8345597,127.1292062"},{"id":"1255","title":"\uc7a5\uc218\uad70 \uc7a5\uc218\uc2dc\uc678\ubc84\uc2a4\ud130\ubbf8\ub110 ","address":"\uc804\ubd81 \uc7a5\uc218\uad70 \uc7a5\uc218\uc74d \uc7a5\ucc9c\ub85c 175","latlng":"35.6482701,127.5182932"},{"id":"1254","title":"\uc775\uc0b0\uc2dc \uc775\uc0b0\uace0\uc18d\/\uc2dc\uc678\ubc84\uc2a4\ud130\ubbf8\ub110(\uc775\uc0b0\uacf5\uc6a9\ubc84\uc2a4\ud130\ubbf8\ub110) ","address":"\uc804\ubd81 \uc775\uc0b0\uc2dc \uc775\uc0b0\ub300\ub85c 56","latlng":"35.9312140,126.9447075"},{"id":"1253","title":"\uc644\uc8fc\uad70 \uc0bc\ub840\uacf5\uc6a9\ubc84\uc2a4\ud130\ubbf8\ub110 ","address":"\uc804\ubd81 \uc644\uc8fc\uad70 \uc0bc\ub840\uc74d \ub3d9\ud559\ub85c 28","latlng":"35.9099152,127.0750163"},{"id":"1252","title":"\ubd80\uc548\uad70 \ubd80\uc548\ud130\ubbf8\ub110(\ubd80\uc548\uc885\ud569\ubc84\uc2a4\ud130\ubbf8\ub110) ","address":"\uc804\ubd81 \ubd80\uc548\uad70 \ubd80\uc548\uc74d \uc11d\uc815\ub85c 210 \uc0ac\ubb34\uc18c","latlng":"35.7270051,126.7368441"},{"id":"1251","title":"\uae40\uc81c\uc2dc \uae40\uc81c\uc2dc\uc678\ubc84\uc2a4\ud130\ubbf8\ub110 \ud604)\uae40\uc81c\uc885\ud569\ubc84\uc2a4\ud130\ubbf8\ub110","address":"\uc804\ubd81 \uae40\uc81c\uc2dc \ub3d9\uc11c\ub85c 241","latlng":"35.8034343,126.8937305"},{"id":"1250","title":"\uad70\uc0b0\uc2dc \uad70\uc0b0\uc2dc\uc678\ubc84\uc2a4\ud130\ubbf8\ub110 ","address":"\uc804\ubd81 \uad70\uc0b0\uc2dc \ud574\ub9dd\ub85c 18 \uad70\uc0b0\uc2dc\uc678\ubc84\uc2a4\ud130\ubbf8\ub110","latlng":"35.9775983,126.7244481"},{"id":"1249","title":"\uad70\uc0b0\uc2dc \uad70\uc0b0\uace0\uc18d\ubc84\uc2a4\ud130\ubbf8\ub110 ","address":"\uc804\ubd81 \uad70\uc0b0\uc2dc \ud574\ub9dd\ub85c 30 \uad70\uc0b0\uace0\uc18d\ubc84\uc2a4\ud130\ubbf8\ub110","latlng":"35.9781407,126.7246948"},{"id":"1248","title":"\uace0\ucc3d\uad70 \uace0\ucc3d\uacf5\uc6a9\ubc84\uc2a4\ud130\ubbf8\ub110 ","address":"\uc804\ubd81 \uace0\ucc3d\uad70 \uace0\ucc3d\uc74d \uc911\uc559\ub85c 191 \uace0\ucc3d\uacf5\uc6a9\ubc84\uc2a4\ud130\ubbf8\ub110","latlng":"35.4356587,126.6964884"},{"id":"1246","title":"\uc804\uc8fc\uc2dc \uc804\uc8fc\uac1c\uc778\ud0dd\uc2dc\ubd80\ud488\ub300\ub9ac\uc810(\uac1c\uc778\ud0dd\uc2dc \uc2e0\ud611\uacf5\uc5c5\uc0ac) ","address":"\uc804\ub77c\ubd81\ub3c4 \uc804\uc8fc\uc2dc \uc644\uc0b0\uad6c \ud6a8\uc790\ub3d93\uac00 844-9","latlng":"35.8379146,127.1047646"},{"id":"1245","title":"\uc815\uc74d\uc2dc \ub0b4\uc7a5\uc0ac \uc81c3\ubb34\ub8cc\uc8fc\ucc28\uc7a5 ","address":"\uc804\ubd81 \uc815\uc74d\uc2dc \ub0b4\uc7a5\uc0b0\ub85c 836 \uc57c\uc601\uc7a5\uc8fc\ucc28\uc7a5","latlng":"35.4951966,126.9191504"},{"id":"1244","title":"\uc804\uc8fc\uc2dc \uc804\uc8fc\ud6a8\uc790\uacf5\uc6d0(\ubb18\uc9c0 \uc8fc\ucc28\uc7a5) ","address":"\uc804\ubd81 \uc804\uc8fc\uc2dc \uc644\uc0b0\uad6c \ucf69\uc950\ud325\uc950\ub85c 1705-138 \uc804\uc8fc\uc2b9\ud654\uc6d0","latlng":"35.8244031,127.0889926"},{"id":"1243","title":"\uc804\uc8fc\uc2dc \uc624\uac70\ub9ac\uacf5\uc601\uc8fc\ucc28\uc7a5 ","address":"\uc804\ubd81 \uc804\uc8fc\uc2dc \uc644\uc0b0\uad6c \ud314\ub2ec\ub85c 217-21 \uc624\uac70\ub9ac\uacf5\uc601\uc8fc\ucc28\uc7a5","latlng":"35.8212983,127.1452005"},{"id":"1242","title":"\uc804\uc8fc\uc2dc \uc5d0\uc2a4\uc5d0\uc2a4\uc8fc\ucc28\uc7a5  ","address":"\uc804\ubd81 \uc804\uc8fc\uc2dc \uc644\uc0b0\uad6c \uc628\uace0\uc744\ub85c 30-30\uc9c0\ubc88\uc804\ubd81 \uc804\uc8fc\uc2dc \uc644\uc0b0\uad6c \uc11c\uc2e0\ub3d9 967-5","latlng":"35.8346226,127.1198314"},{"id":"1241","title":"\uace0\ucc3d\uad70 \ud558\uace0\ub9ac \uc655\ubc84\ub4e4\ub098\ubb34\uc232 ","address":"\uc804\ubd81 \uace0\ucc3d\uad70 \uc131\uc1a1\uba74 \ud558\uace0\ub9ac","latlng":"35.3588000,126.6170000"},{"id":"1240","title":"\uae40\uc81c\uc2dc \uae08\uc0b0\uc0ac \uae38 ","address":"\uc804\ubd81 \uae40\uc81c\uc2dc \uae08\uc0b0\uba74 \uc30d\uc6a9\ub9ac","latlng":"35.7164000,127.0041000"},{"id":"1238","title":"\ubd80\uc548\uad70 \ubcc0\uc0b0\ub9c8\uc2e4\uae38 ","address":"\uc131\ucc9c\ub9c8\uc744 \u2194 \uaca9\ud3ec\ud56d","latlng":","},{"id":"1237","title":"\uc21c\ucc3d\uad70 \uc7a5\uad6c\ubaa9\uc784\ub3c4 ","address":"\uc804\ub77c\ubd81\ub3c4 \uc21c\ucc3d\uad70 \ub3d9\uacc4\uba74 \uc5b4\uce58\ub9ac 629-1","latlng":"35.4706784,127.1900611"},{"id":"1236","title":"\uc644\uc8fc\uad70 \uacf5\uae30\ub9c8\uc744(\ud3b8\ubc31\ub098\ubb34\uc232) ","address":"\uc804\ubd81 \uc644\uc8fc\uad70 \uc0c1\uad00\uba74 \uc8fd\ub9bc\ub9ac \uc0b0214-1","latlng":"35.7348814,127.1888771"},{"id":"1235","title":"\uc804\uc8fc\uc2dc \ud0dc\uc870\ub85c ","address":"\uc804\ubd81 \uc804\uc8fc\uc2dc \uc644\uc0b0\uad6c \uad50\ub3d9","latlng":"35.8122000,127.1612000"},{"id":"1234","title":"\uc804\uc8fc\uc2dc \ud3b8\ubc31\ub098\ubb34 \uc232 (\ub3d9\ubb3c\uc6d0 \uc785\uad6c \uc606 \ucd95\uad6c\uc7a5 \ub4a4\ud3b8) ","address":"\uc804\ubd81 \uc644\uc8fc\uad70 \uc0c1\uad00\uba74 \uc8fd\ub9bc\ub9ac \uc0b0214-1","latlng":"35.7348814,127.1888771"},{"id":"1233","title":"\uc804\uc8fc\uc2dc \uad11\uc7a5\uc9c0\ud558\ubcf4\ub3c4 (\ub86f\ub370\ubc31\ud654\uc810 \uc606) ","address":"\uc804\ubd81 \uc804\uc8fc\uc2dc \uc644\uc0b0\uad6c \uc628\uace0\uc744\ub85c 28 \ud638\uc9c4\ube4c\ub529","latlng":"35.8341949,127.1198188"},{"id":"1232","title":"\uc804\uc8fc\uc2dc \ucd95\ub300~\uc624\ubaa9\ub300 \uac00\ub294 \uae38 ","address":"\uc804\ub77c\ubd81\ub3c4 \uc804\uc8fc\uc2dc \uc644\uc0b0\uad6c \uad50\ub3d9 50-21","latlng":"35.8137838,127.1557509"},{"id":"1231","title":"\uc9c4\uc548\uad70 \uc640\ub8e1\uad50 ","address":"\uc804\ubd81 \uc9c4\uc548\uad70 \uc6a9\ub2f4\uba74 \uc640\ub8e1\ub9ac","latlng":"35.9654000,127.4620000"},{"id":"1230","title":"\uc804\uc8fc\uc2dc \ud6a8\uc790\ub2e4\ub9ac ","address":"\uc804\ubd81 \uc804\uc8fc\uc2dc \uc644\uc0b0\uad6c \ud6a8\uc790\ub3d93\uac00","latlng":"35.8247100,127.0965200"},{"id":"1229","title":"\uc784\uc2e4\uad70 \uc784\uc6b4\uad50 ","address":"\uc804\ubd81 \uc784\uc2e4\uad70 \uc6b4\uc554\uba74 \ud559\uc554\ub9ac","latlng":"35.6083000,127.2074000"},{"id":"1228","title":"\uc784\uc2e4\uad70 \uc655\ubc29\uad50 ","address":"\uc804\ubd81 \uc784\uc2e4\uad70 \uc131\uc218\uba74 \uc655\ubc29\ub9ac","latlng":"35.6243000,127.3974000"},{"id":"1227","title":"\ubb34\uc8fc\uad70 \ud6c4\ub3c4\uad50 ","address":"\uc804\ubd81 \ubb34\uc8fc\uad70 \ubb34\uc8fc\uc74d \ub0b4\ub3c4\ub9ac","latlng":"36.0428000,127.6392500"},{"id":"1226","title":"\ubb34\uc8fc\uad70 \uc7a0\ub4502\uad50 ","address":"\uc804\ubd81 \ubb34\uc8fc\uad70 \ubb34\uc8fc\uc74d \uc6a9\ud3ec\ub9ac","latlng":"35.9883000,127.6215000"},{"id":"1225","title":"\ubb34\uc8fc\uad70 \uc55e\uc12c\ub2e4\ub9ac ","address":"\uc804\ubd81 \ubb34\uc8fc\uad70 \ubb34\uc8fc\uc74d \uc74d\ub0b4\ub9ac","latlng":"36.0144000,127.6551000"},{"id":"1224","title":"\ub0a8\uc6d0\uc2dc \uc2b9\uc6d4\uad50 ","address":"\uc804\ubd81 \ub0a8\uc6d0\uc2dc \uc694\ucc9c\ub85c 1447 \uad11\ud55c\ub8e8","latlng":"35.4032843,127.3795144"},{"id":"1222","title":"\uad70\uc0b0\uc2dc \ud574\ub9dd\uad74 ","address":"\uc804\ubd81 \uad70\uc0b0\uc2dc \ud574\ub9dd\ub3d9","latlng":"35.9886000,126.6994000"},{"id":"1221","title":"\uc804\uc8fc 27\ud638\uad11\uc7a5\uc9c0\ud558\ucc28\ub3c4(\ub86f\ub370\ubc31\ud654\uc810 \uc606 \uc9c0\ud558\ucc28\ub3c4) ","address":"\uc804\ubd81 \uc804\uc8fc\uc2dc \uc644\uc0b0\uad6c \uc11c\uc2e0\ub3d9","latlng":"35.8309833,127.1152375"},{"id":"1220","title":"\uc9c4\uc548\uad70 \ubaa8\ub798\uc7ac \uba54\ud0c0\uc138\ucf70\uc774\uc5b4 \uae38 ","address":"\uc804\ub77c\ubd81\ub3c4 \uc9c4\uc548\uad70 \ubd80\uadc0\uba74 \uc138\ub3d9\ub9ac 117-15","latlng":"35.8059549,127.3244653"},{"id":"1219","title":"\uc775\uc0b0\uc2dc \ud669\ub4f1 \ub3c4\ub85c ","address":"\uc804\ubd81 \uc775\uc0b0\uc2dc \ud669\ub4f1\uba74 \ubc31\uae38 17 \ubc31\uae38\uacbd\ub85c\ub2f9","latlng":"35.9963335,126.9421335"},{"id":"1218","title":"\uc644\uc8fc\uad70 \uacf0\ud2f0\uc7ac ","address":"\uc804\ub77c\ubd81\ub3c4 \uc9c4\uc548\uad70 \ubd80\uadc0\uba74 \uc138\ub3d9\ub9ac 1339-2","latlng":"35.8288346,127.3126946"},